Code,School Name,Street,Suburb,State,Postcode,Postal Street,Postal Suburb,Postal State,Postal Postcode,Latitude,Longitude,Phone,Education Region,Broad Classification,Classification Group,Low Year,High Year,KIN,PPR,Y01,Y02,Y03,Y04,Y05,Y06,UPR,Y07,Y08,Y09,Y10,Y11,Y12,USE,Total Students
5001,ADAM ROAD PRIMARY SCHOOL,HOTCHIN STREET,SOUTH BUNBURY,WA,6230,HOTCHIN STREET,SOUTH BUNBURY,WA,6230,-33.357951,115.635371,08 9796 3000,SOUTH WEST,Primary Schools,PRIMARY SCHOOLS,KIN,Y06,51,49,46,54,69,61,62,48,,,,,,,,,440
1463,AL-AMEEN COLLEGE,57 SOUTHGATE ROAD,LANGFORD,WA,6147,57 SOUTHGATE ROAD,LANGFORD,WA,6147,-32.04605574,115.9371583,08 9458 5206,SOUTH METROPOLITAN,NON-GOVT SCHOOLS,NON-GOVERNMENT,KIN,Y12,76,75,80,88,91,94,95,91,,86,106,81,85,67,66,,"1,181"
1397,AL-HIDAYAH ISLAMIC SCHOOL,CNR HEDLEY ST/NYAMUP WAY,BENTLEY,WA,6102,CNR HEDLEY ST/NYAMUP WAY,BENTLEY,WA,6102,-32.01035814,115.9115641,08 9351 8593,SOUTH METROPOLITAN,NON-GOVT SCHOOLS,NON-GOVERNMENT,PPR,Y06,,33,33,31,31,32,28,24,,,,,,,,,212
8001,ALBANY COMMUNITY KINDERGARTEN,136 SERPENTINE ROAD,ALBANY,WA,6330,PO BOX 5670,ALBANY,WA,6332,-35.02145966,117.8809869,08 9841 1864,SOUTH WEST,Community Kindergartens,COMMUNITY KINDERGARTENS,KIN,KIN,29,,,,,,,,,,,,,,,,29
5002,ALBANY PRIMARY SCHOOL,SUFFOLK STREET,ALBANY,WA,6330,SUFFOLK STREET,ALBANY,WA,6330,-35.01821151,117.8916106,08 9844 2860,SOUTH WEST,Primary Schools,PRIMARY SCHOOLS,KIN,Y06,20,44,53,59,60,62,60,60,,,,,,,,,418
6151,ALBANY SECONDARY EDUCATION SUPPORT CENTRE,65 ANSON ROAD,ALBANY,WA,6330,65 ANSON ROAD,ALBANY,WA,6330,-34.99074882,117.8668674,08 9844 2550,SOUTH WEST,Education Support Centres,EDUCATION SUPPORT,Y07,Y12,,,,,,,,,,9,13,11,7,12,5,,57
4001,ALBANY SENIOR HIGH SCHOOL,1 CAMPBELL ROAD,ALBANY,WA,6330,1 CAMPBELL ROAD,ALBANY,WA,6330,-35.02044765,117.8917733,08 6821 1700,SOUTH WEST,Senior High Schools,SECONDARY SCHOOLS,Y07,Y12,,,,,,,,,,153,128,126,189,165,102,,863
5693,ALINJARRA PRIMARY SCHOOL,33 NORTHUMBERLAND AVENUE,ALEXANDER HEIGHTS,WA,6064,33 NORTHUMBERLAND AVENUE,ALEXANDER HEIGHTS,WA,6064,-31.82962571,115.8701402,08 9462 9950,NORTH METROPOLITAN,Primary Schools,PRIMARY SCHOOLS,KIN,Y06,42,48,43,36,47,38,29,42,,,,,,,,,325
1488,ALKIMOS BAPTIST COLLEGE,60 SEAGROVE BOULEVARD,MERRIWA,WA,6030,60 SEAGROVE BOULEVARD,MERRIWA,WA,6030,-31.66032819,115.7101785,08 9406 8189,NORTH METROPOLITAN,NON-GOVT SCHOOLS,NON-GOVERNMENT,KIN,Y12,12,18,18,19,14,23,24,32,,31,33,31,31,19,10,,315
5848,ALKIMOS BEACH PRIMARY SCHOOL,200 LEATHERBACK BOULEVARD,ALKIMOS,WA,6038,200 LEATHERBACK BOULEVARD,ALKIMOS,WA,6038,-31.625186,115.678659,08 9561 7200,NORTH METROPOLITAN,Primary Schools,PRIMARY SCHOOLS,KIN,Y06,60,67,63,79,61,62,56,64,,,,,,,,,512
4211,ALKIMOS COLLEGE,101 SANTORINI PROMENADE,ALKIMOS,WA,6038,101 SANTORINI PROMENADE,ALKIMOS,WA,6038,-31.629987,115.694233,08 9561 7300,NORTH METROPOLITAN,Senior High Schools,SECONDARY SCHOOLS,Y07,Y10,,,,,,,,,,219,204,180,185,,,,788
5844,ALKIMOS PRIMARY SCHOOL,340 BENENDEN AVENUE,ALKIMOS,WA,6038,340 BENENDEN AVENUE,ALKIMOS,WA,6038,-31.62699105,115.7026573,08 9562 9800,NORTH METROPOLITAN,Primary Schools,PRIMARY SCHOOLS,KIN,Y06,84,70,94,92,82,72,76,75,,,,,,,,,645
1277,ALL SAINTS' COLLEGE,28 EWING AVENUE,BULL CREEK,WA,6149,28 EWING AVENUE,BULL CREEK,WA,6149,-32.04946998,115.867023,08 9313 9333,SOUTH METROPOLITAN,NON-GOVT SCHOOLS,NON-GOVERNMENT,KIN,Y12,94,47,50,48,53,53,84,80,,141,144,139,162,186,134,,"1,415"
5006,ALLANSON PRIMARY SCHOOL,CAMERON STREET,ALLANSON,WA,6225,CAMERON STREET,ALLANSON,WA,6225,-33.33580893,116.099005,08 9735 2800,SOUTH WEST,Primary Schools,PRIMARY SCHOOLS,KIN,Y06,18,11,10,6,14,8,11,20,,,,,,,,,98
5007,ALLENDALE PRIMARY SCHOOL,52 WITTENOOM STREET,GERALDTON,WA,6530,52 WITTENOOM STREET,GERALDTON,WA,6530,-28.76430303,114.6237354,08 9923 6600,MIDWEST,Primary Schools,PRIMARY SCHOOLS,KIN,Y06,28,40,37,47,52,56,43,47,,,,,,,,,350
1478,ALTA-1 COLLEGE,12 WINTON ROAD,JOONDALUP,WA,6027,12 WINTON ROAD,JOONDALUP,WA,6027,-31.78537164,115.8133126,08 9403 8200,NORTH METROPOLITAN,NON-GOVT SCHOOLS,NON-GOVERNMENT,Y07,Y12,,,,,,,,,,4,48,102,154,577,32,,917
1545,ALTA-1 KIMBERLEY COLLEGE,LOT 579 PACKSADDLE ROAD,KUNUNURRA,WA,6743,LOT 579 PACKSADDLE ROAD,KUNUNURRA,WA,6743,-15.795972,128.688089,08 9403 8200,KIMBERLEY,NON-GOVT SCHOOLS,NON-GOVERNMENT,Y07,Y11,,,,,,,,,,1,6,8,5,7,,,27
5008,AMAROO PRIMARY SCHOOL,79 JONES STREET,COLLIE,WA,6225,79 JONES STREET,COLLIE,WA,6225,-33.35205078,116.149663,08 9735 9400,SOUTH WEST,Primary Schools,PRIMARY SCHOOLS,KIN,Y06,48,34,42,46,37,35,39,45,,,,,,,,,326
5841,ANNE HAMERSLEY PRIMARY SCHOOL,16 DUNNETT DRIVE,ELLENBROOK,WA,6069,16 DUNNETT DRIVE,ELLENBROOK,WA,6069,-31.74539641,116.0087173,08 9297 7000,NORTH METROPOLITAN,Primary Schools,PRIMARY SCHOOLS,KIN,Y06,80,83,98,84,107,54,84,72,,,,,,,,,662
5509,ANZAC TERRACE PRIMARY SCHOOL,176 ANZAC TERRACE,BASSENDEAN,WA,6054,176 ANZAC TERRACE,BASSENDEAN,WA,6054,-31.89719261,115.9372531,08 9352 2600,NORTH METROPOLITAN,Primary Schools,PRIMARY SCHOOLS,KIN,Y06,42,46,43,45,43,45,53,52,,,,,,,,,369
5010,APPLECROSS PRIMARY SCHOOL,65 KINTAIL ROAD,APPLECROSS,WA,6153,65 KINTAIL ROAD,APPLECROSS,WA,6153,-32.01084327,115.8395984,08 6274 1850,SOUTH METROPOLITAN,Primary Schools,PRIMARY SCHOOLS,KIN,Y06,58,51,69,66,86,82,83,77,,,,,,,,,572
4002,APPLECROSS SENIOR HIGH SCHOOL,LINKS ROAD,ARDROSS,WA,6153,LINKS ROAD,ARDROSS,WA,6153,-32.029376,115.83509,08 9314 9393,SOUTH METROPOLITAN,Senior High Schools,SECONDARY SCHOOLS,Y07,Y12,,,,,,,,,,316,326,307,301,337,272,,"1,859"
1107,AQUINAS COLLEGE,58 MT HENRY ROAD,SALTER POINT,WA,6152,58 MT HENRY ROAD,SALTER POINT,WA,6152,-32.02617519,115.8617538,08 9450 0600,SOUTH METROPOLITAN,NON-GOVT SCHOOLS,NON-GOVERNMENT,KIN,Y12,14,14,28,17,35,52,55,69,,142,166,164,187,201,182,,"1,326"
1100,ARANMORE CATHOLIC COLLEGE,41 FRANKLIN STREET,LEEDERVILLE,WA,6007,41 FRANKLIN STREET,LEEDERVILLE,WA,6007,-31.92706854,115.8431695,08 9201 5200,NORTH METROPOLITAN,NON-GOVT SCHOOLS,NON-GOVERNMENT,Y07,Y12,,,,,,,,,,92,108,138,116,146,104,,704
1241,ARANMORE CATHOLIC PRIMARY SCHOOL,20 BRENTHAM STREET,LEEDERVILLE,WA,6007,20 BRENTHAM STREET,LEEDERVILLE,WA,6007,-31.92790363,115.8392341,08 6318 7800,NORTH METROPOLITAN,NON-GOVT SCHOOLS,NON-GOVERNMENT,KIN,Y06,20,24,32,29,38,36,39,43,,,,,,,,,261
5792,ARBOR GROVE PRIMARY SCHOOL,BROOKMOUNT DRIVE,ELLENBROOK,WA,6069,BROOKMOUNT DRIVE,ELLENBROOK,WA,6069,-31.77105084,115.962637,08 6497 4800,NORTH METROPOLITAN,Primary Schools,PRIMARY SCHOOLS,KIN,Y06,60,71,71,79,88,80,85,91,,,,,,,,,625
5012,ARDROSS PRIMARY SCHOOL,46 LINKS ROAD,ARDROSS,WA,6153,46 LINKS ROAD,ARDROSS,WA,6153,-32.0274405,115.8346577,08 9263 1350,SOUTH METROPOLITAN,Primary Schools,PRIMARY SCHOOLS,KIN,Y06,35,55,48,49,47,49,71,52,,,,,,,,,406
6050,ARMADALE EDUCATION SUPPORT CENTRE,169 SOUTH WESTERN HIGHWAY,ARMADALE,WA,6112,PO BOX 189,ARMADALE,WA,6992,-32.16152603,116.0143523,08 9497 6435,SOUTH METROPOLITAN,Education Support Centres,EDUCATION SUPPORT,Y07,Y12,,,,,,,,,,12,9,16,10,10,15,,72
5014,ARMADALE PRIMARY SCHOOL,1 CARRADINE ROAD,ARMADALE,WA,6112,1 CARRADINE ROAD,ARMADALE,WA,6112,-32.14823967,116.0264848,08 9391 4500,SOUTH METROPOLITAN,Primary Schools,PRIMARY SCHOOLS,KIN,Y06,40,51,63,63,59,61,59,52,,,,,,,,,448
4003,ARMADALE SENIOR HIGH SCHOOL,169 SOUTH WESTERN HIGHWAY,ARMADALE,WA,6112,PO BOX 189,ARMADALE,WA,6992,-32.16152603,116.0143523,08 9497 6400,SOUTH METROPOLITAN,Senior High Schools,SECONDARY SCHOOLS,Y07,Y12,,,,,,,,,,118,124,127,144,113,80,,706
5676,ASHBURTON DRIVE PRIMARY SCHOOL,6 NULLAGINE WAY,GOSNELLS,WA,6110,6 NULLAGINE WAY,GOSNELLS,WA,6110,-32.0862307,115.9841976,08 9234 6300,SOUTH METROPOLITAN,Primary Schools,PRIMARY SCHOOLS,KIN,Y06,41,53,58,47,59,54,60,69,,,,,,,,,441
5786,ASHDALE PRIMARY SCHOOL,51 ASHDALE BOULEVARD,DARCH,WA,6065,51 ASHDALE BOULEVARD,DARCH,WA,6065,-31.80875751,115.8437538,08 6207 4500,NORTH METROPOLITAN,Primary Schools,PRIMARY SCHOOLS,KIN,Y06,66,78,78,83,100,90,113,121,,,,,,,,,729
4181,ASHDALE SECONDARY COLLEGE,75 WESTPORT PARADE,DARCH,WA,6065,75 WESTPORT PARADE,DARCH,WA,6065,-31.81162275,115.8414952,08 6207 1300,NORTH METROPOLITAN,Senior High Schools,SECONDARY SCHOOLS,Y07,Y12,,,,,,,,,,297,327,298,340,325,252,,"1,839"
5015,ASHFIELD PRIMARY SCHOOL,65 MARGARET STREET,ASHFIELD,WA,6054,65 MARGARET STREET,ASHFIELD,WA,6054,-31.91530992,115.9409018,08 6216 1300,NORTH METROPOLITAN,Primary Schools,PRIMARY SCHOOLS,KIN,Y06,23,16,13,13,16,15,6,15,,,,,,,,,117
5854,ASPIRI PRIMARY SCHOOL,30 SUNRAY AVENUE,PIARA WATERS,WA,6112,30 SUNRAY AVENUE,PIARA WATERS,WA,6112,-32.138988,115.912209,08 9397 8300,SOUTH METROPOLITAN,Primary Schools,PRIMARY SCHOOLS,KIN,Y06,117,118,114,136,134,104,99,61,,,,,,,,,883
1287,ASSUMPTION CATHOLIC PRIMARY SCHOOL,22-34 GORDON ROAD,MANDURAH,WA,6210,22-34 GORDON ROAD,MANDURAH,WA,6210,-32.50994328,115.7464321,08 9583 8500,SOUTH METROPOLITAN,NON-GOVT SCHOOLS,NON-GOVERNMENT,KIN,Y06,42,42,48,53,51,54,49,63,,,,,,,,,402
1519,ATLANTIS BEACH BAPTIST COLLEGE,800 BREAKWATER DRIVE,TWO ROCKS,WA,6037,800 BREAKWATER DRIVE,TWO ROCKS,WA,6037,-31.473535,115.644623,08 9544 3000,NORTH METROPOLITAN,NON-GOVT SCHOOLS,NON-GOVERNMENT,KIN,Y10,18,22,22,22,21,27,33,34,,39,31,31,17,,,,317
5016,ATTADALE PRIMARY SCHOOL,WICHMANN ROAD,ATTADALE,WA,6156,WICHMANN ROAD,ATTADALE,WA,6156,-32.02544682,115.8018145,08 6274 1700,SOUTH METROPOLITAN,Primary Schools,PRIMARY SCHOOLS,KIN,Y06,60,47,49,55,63,63,46,39,,,,,,,,,422
4184,ATWELL COLLEGE,201 BRENCHLEY DRIVE,ATWELL,WA,6164,201 BRENCHLEY DRIVE,ATWELL,WA,6164,-32.14395682,115.8641462,08 6174 2200,SOUTH METROPOLITAN,Senior High Schools,SECONDARY SCHOOLS,Y07,Y12,,,,,,,,,,144,148,203,176,236,168,,"1,075"
5765,ATWELL PRIMARY SCHOOL,160 LYDON BOULEVARD,ATWELL,WA,6164,160 LYDON BOULEVARD,ATWELL,WA,6164,-32.13527555,115.867828,08 6174 2400,SOUTH METROPOLITAN,Primary Schools,PRIMARY SCHOOLS,KIN,Y06,42,61,73,81,80,68,72,83,,,,,,,,,560
5820,AUBIN GROVE PRIMARY SCHOOL,85 CAMDEN BOULEVARD,AUBIN GROVE,WA,6164,85 CAMDEN BOULEVARD,AUBIN GROVE,WA,6164,-32.17306065,115.8623522,08 6174 6500,SOUTH METROPOLITAN,Primary Schools,PRIMARY SCHOOLS,KIN,Y06,99,119,116,113,149,125,140,143,,,,,,,,,"1,004"
5017,AUGUSTA PRIMARY SCHOOL,32 ALLNUTT TERRACE,AUGUSTA,WA,6290,PO BOX 106,AUGUSTA,WA,6290,-34.31671839,115.1595029,08 9781 5100,SOUTH WEST,Primary Schools,PRIMARY SCHOOLS,KIN,Y06,15,15,15,9,19,18,7,8,,,,,,,,,106
1487,AUSTIN COVE BAPTIST COLLEGE,INLET BOULEVARD,SOUTH YUNDERUP,WA,6208,INLET BOULEVARD,SOUTH YUNDERUP,WA,6208,-32.59324476,115.8065154,08 9520 8200,SOUTH METROPOLITAN,NON-GOVT SCHOOLS,NON-GOVERNMENT,KIN,Y12,39,43,47,44,30,47,48,43,,82,77,79,62,34,34,,709
1491,AUSTRALIAN CHRISTIAN COLLEGE - DARLING DOWNS,10 NINTH ROAD,HILBERT,WA,6112,10 NINTH ROAD,HILBERT,WA,6112,-32.17468068,116.0042944,08 9391 1500,SOUTH METROPOLITAN,NON-GOVT SCHOOLS,NON-GOVERNMENT,KIN,Y08,10,14,11,12,16,15,9,10,,11,7,,,,,,115
1438,AUSTRALIAN CHRISTIAN COLLEGE - SOUTHLANDS,26 BREWSTER ROAD,ALBANY,WA,6330,26 BREWSTER ROAD,ALBANY,WA,6330,-34.99550802,117.9227056,08 9892 5100,SOUTH WEST,NON-GOVT SCHOOLS,NON-GOVERNMENT,KIN,Y12,5,14,23,27,31,37,46,48,,70,85,123,165,149,77,,900
1391,AUSTRALIAN ISLAMIC COLLEGE DIANELLA,81 CLEVELAND STREET,DIANELLA,WA,6059,81 CLEVELAND STREET,DIANELLA,WA,6059,-31.90293601,115.8744467,08 9375 9770,NORTH METROPOLITAN,NON-GOVT SCHOOLS,NON-GOVERNMENT,KIN,Y10,80,82,87,87,99,99,89,87,,79,66,60,42,,,,957
1441,AUSTRALIAN ISLAMIC COLLEGE KEWDALE,139 PRESIDENT STREET,KEWDALE,WA,6105,139 PRESIDENT STREET,KEWDALE,WA,6105,-31.97999061,115.9325273,08 9362 5340,SOUTH METROPOLITAN,NON-GOVT SCHOOLS,NON-GOVERNMENT,KIN,Y12,66,83,88,108,91,117,117,149,,220,193,187,214,193,193,,"2,019"
1331,AUSTRALIAN ISLAMIC COLLEGE THORNLIE,17 TONBRIDGE WAY,THORNLIE,WA,6108,17 TONBRIDGE WAY,THORNLIE,WA,6108,-32.05402507,115.9611396,08 9493 2718,SOUTH METROPOLITAN,NON-GOVT SCHOOLS,NON-GOVERNMENT,KIN,Y06,80,90,114,102,90,102,70,61,,,,,,,,,709
5629,AUSTRALIND PRIMARY SCHOOL,BARNES AVENUE,AUSTRALIND,WA,6233,PO BOX A630,AUSTRALIND,WA,6233,-33.28059897,115.7271368,08 9796 3900,SOUTH WEST,Primary Schools,PRIMARY SCHOOLS,KIN,Y06,18,17,23,21,29,19,16,29,,,,,,,,,172
4146,AUSTRALIND SENIOR HIGH SCHOOL,12 BREAK O'DAY DRIVE,AUSTRALIND,WA,6233,12 BREAK O'DAY DRIVE,AUSTRALIND,WA,6233,-33.27665965,115.7284365,08 9797 4400,SOUTH WEST,Senior High Schools,SECONDARY SCHOOLS,Y07,Y12,,,,,,,,,,201,196,204,239,206,141,,"1,187"
5853,AVELEY NORTH PRIMARY SCHOOL,77 STRINESDALE BOULEVARD,AVELEY,WA,6069,77 STRINESDALE BOULEVARD,AVELEY,WA,6069,-31.778441,115.991854,08 9297 7800,NORTH METROPOLITAN,Primary Schools,PRIMARY SCHOOLS,KIN,Y06,91,95,102,100,103,90,76,48,,,,,,,,,705
5821,AVELEY PRIMARY SCHOOL,8 BOLERO ROAD,AVELEY,WA,6069,8 BOLERO ROAD,AVELEY,WA,6069,-31.79108088,115.9905586,08 9297 7350,NORTH METROPOLITAN,Primary Schools,PRIMARY SCHOOLS,KIN,Y06,80,93,83,91,71,76,76,102,,,,,,,,,672
4209,AVELEY SECONDARY COLLEGE,MAFFINA PARADE,ELLENBROOK,WA,6069,MAFFINA PARADE,ELLENBROOK,WA,6069,-31.767004,115.987559,08 6296 1000,NORTH METROPOLITAN,Senior High Schools,SECONDARY SCHOOLS,Y07,Y12,,,,,,,,,,296,300,268,278,228,155,,"1,525"
6041,AVONVALE EDUCATION SUPPORT CENTRE,HUTT STREET,NORTHAM,WA,6401,PO BOX 1061,NORTHAM,WA,6401,-31.64551218,116.6613138,08 9621 5250,WHEATBELT,Education Support Centres,EDUCATION SUPPORT,PPR,Y12,,3,4,2,5,2,3,3,,3,1,2,1,1,2,,32
5018,AVONVALE PRIMARY SCHOOL,HUTT STREET,NORTHAM,WA,6401,PO BOX 666,NORTHAM,WA,6401,-31.64551218,116.6613138,08 9621 5200,WHEATBELT,Primary Schools,PRIMARY SCHOOLS,KIN,Y06,8,18,17,15,11,14,16,12,,,,,,,,,111
5020,BABAKIN PRIMARY SCHOOL,FARRAR STREET,BABAKIN,WA,6428,PO BOX 288,CORRIGIN,WA,6375,-32.12359155,118.0209226,08 9065 2400,WHEATBELT,Primary Schools,PRIMARY SCHOOLS,KIN,Y06,2,,1,1,,2,1,1,,,,,,,,,8
5021,BADGINGARRA PRIMARY SCHOOL,MCNAMARA ROAD,BADGINGARRA,WA,6521,C/- POST OFFICE,BADGINGARRA,WA,6521,-30.4024941,115.550545,08 9652 8900,MIDWEST,Primary Schools,PRIMARY SCHOOLS,KIN,Y06,7,5,2,1,2,,2,2,,,,,,,,,21
5022,BAKERS HILL PRIMARY SCHOOL,33 SAINT GEORGE STREET,BAKERS HILL,WA,6562,33 SAINT GEORGE STREET,BAKERS HILL,WA,6562,-31.75120467,116.4615984,08 9574 3100,WHEATBELT,Primary Schools,PRIMARY SCHOOLS,KIN,Y06,16,16,24,17,27,18,23,20,,,,,,,,,161
5023,BALCATTA PRIMARY SCHOOL,387 MAIN STREET,BALCATTA,WA,6021,387 MAIN STREET,BALCATTA,WA,6021,-31.88093054,115.8272729,08 9253 4900,NORTH METROPOLITAN,Primary Schools,PRIMARY SCHOOLS,KIN,Y06,39,33,36,33,35,32,25,27,,,,,,,,,260
4004,BALCATTA SENIOR HIGH SCHOOL,31 POINCAIRE STREET,BALCATTA,WA,6021,31 POINCAIRE STREET,BALCATTA,WA,6021,-31.87551716,115.8122429,08 9345 8200,NORTH METROPOLITAN,Senior High Schools,SECONDARY SCHOOLS,Y07,Y12,,,,,,,,,,199,177,173,142,107,103,,901
5847,BALDIVIS GARDENS PRIMARY SCHOOL,NADINE PROMENADE,BALDIVIS,WA,6171,NADINE PROMENADE,BALDIVIS,WA,6171,-32.300823,115.810062,08 9523 7000,SOUTH METROPOLITAN,Primary Schools,PRIMARY SCHOOLS,KIN,Y06,66,68,56,65,62,59,53,62,,,,,,,,,491
5024,BALDIVIS PRIMARY SCHOOL,214 FIFTY ROAD,BALDIVIS,WA,6171,214 FIFTY ROAD,BALDIVIS,WA,6171,-32.30718679,115.8174722,08 9523 5700,SOUTH METROPOLITAN,Primary Schools,PRIMARY SCHOOLS,KIN,Y06,60,64,66,75,53,80,65,78,,,,,,,,,541
4190,BALDIVIS SECONDARY COLLEGE,STILLWATER DRIVE,BALDIVIS,WA,6171,PO BOX 4119,BALDIVIS,WA,6171,-32.334099,115.828418,08 9523 3600,SOUTH METROPOLITAN,Senior High Schools,SECONDARY SCHOOLS,Y07,Y12,,,,,,,,,,199,222,237,230,202,218,,"1,308"
5580,BALER PRIMARY SCHOOL,BALER CLOSE,SOUTH HEDLAND,WA,6722,PO BOX 2621,SOUTH HEDLAND,WA,6722,-20.40461541,118.6124558,08 9172 8400,PILBARA,Primary Schools,PRIMARY SCHOOLS,KIN,Y06,57,75,82,58,67,72,65,67,,,,,,,,,543
5025,BALGA PRIMARY SCHOOL,11 FERNHURST CRESCENT,BALGA,WA,6061,11 FERNHURST CRESCENT,BALGA,WA,6061,-31.86059553,115.8448001,08 9253 4500,NORTH METROPOLITAN,Primary Schools,PRIMARY SCHOOLS,KIN,Y06,31,30,37,28,21,31,14,18,,,,,,,,,210
4050,BALGA SENIOR HIGH SCHOOL,2 MARKHAM WAY,BALGA,WA,6061,2 MARKHAM WAY,BALGA,WA,6061,-31.85134146,115.8465042,08 9247 0222,NORTH METROPOLITAN,Senior High Schools,SECONDARY SCHOOLS,Y07,Y12,,,,,,,,,,90,73,75,124,83,102,,547
5027,BALINGUP PRIMARY SCHOOL,CNR BROCKMAN AND STEERE STS,BALINGUP,WA,6253,PO BOX 372,BALINGUP,WA,6253,-33.78633822,115.9822069,08 9782 5900,SOUTH WEST,Primary Schools,PRIMARY SCHOOLS,KIN,Y06,5,7,4,9,5,11,14,5,,,,,,,,,60
4158,BALLAJURA COMMUNITY COLLEGE,ILLAWARRA CRESCENT SOUTH,BALLAJURA,WA,6066,ILLAWARRA CRESCENT SOUTH,BALLAJURA,WA,6066,-31.84474671,115.8934345,08 9262 7777,NORTH METROPOLITAN,Senior High Schools,SECONDARY SCHOOLS,Y07,Y12,,,,,,,,,,157,184,166,201,182,165,,"1,055"
5702,BALLAJURA PRIMARY SCHOOL,ILLAWARRA CRESCENT SOUTH,BALLAJURA,WA,6066,ILLAWARRA CRESCENT SOUTH,BALLAJURA,WA,6066,-31.83593382,115.892303,08 9338 2200,NORTH METROPOLITAN,Primary Schools,PRIMARY SCHOOLS,KIN,Y06,79,85,79,102,88,94,101,100,,,,,,,,,728
5609,BAMBARA PRIMARY SCHOOL,30 GOSSE ROAD,PADBURY,WA,6025,30 GOSSE ROAD,PADBURY,WA,6025,-31.79830122,115.7614207,08 6206 2150,NORTH METROPOLITAN,Primary Schools,PRIMARY SCHOOLS,KIN,Y06,41,38,36,32,30,21,23,14,,,,,,,,,235
5762,BANKSIA GROVE PRIMARY SCHOOL,14 VIRIDIAN DRIVE,BANKSIA GROVE,WA,6031,14 VIRIDIAN DRIVE,BANKSIA GROVE,WA,6031,-31.70254405,115.8089621,08 9233 6333    ,NORTH METROPOLITAN,Primary Schools,PRIMARY SCHOOLS,KIN,Y06,38,42,46,59,58,56,72,77,,,,,,,,,448
1577,BANKSIA MONTESSORI SCHOOL,17 CHATTON STREET,DIANELLA,WA,6059,17 CHATTON STREET,DIANELLA,WA,6059,-31.89277585,115.8692823,08 9275 5997,NORTH METROPOLITAN,NON-GOVT SCHOOLS,NON-GOVERNMENT,KIN,PPR,12,12,,,,,,,,,,,,,,,24
5701,BANKSIA PARK PRIMARY SCHOOL,HICKS STREET,LEEMING,WA,6149,HICKS STREET,LEEMING,WA,6149,-32.07166263,115.8754583,08 9266 6400,SOUTH METROPOLITAN,Primary Schools,PRIMARY SCHOOLS,KIN,Y06,27,40,33,35,29,31,30,39,,,,,,,,,264
5817,BANNISTER CREEK PRIMARY SCHOOL,92 PURLEY CRESCENT,LYNWOOD,WA,6147,92 PURLEY CRESCENT,LYNWOOD,WA,6147,-32.0397245,115.9285022,08 9366 0900,SOUTH METROPOLITAN,Primary Schools,PRIMARY SCHOOLS,KIN,Y06,78,56,76,78,74,68,61,69,,,,,,,,,560
5030,BASSENDEAN PRIMARY SCHOOL,70 WEST ROAD,BASSENDEAN,WA,6054,70 WEST ROAD,BASSENDEAN,WA,6054,-31.90747284,115.9534451,08 6216 1400,NORTH METROPOLITAN,Primary Schools,PRIMARY SCHOOLS,KIN,Y06,40,50,64,48,44,36,26,15,,,,,,,,,323
5519,BATEMAN PRIMARY SCHOOL,2 BARTLING CRESCENT,BATEMAN,WA,6150,2 BARTLING CRESCENT,BATEMAN,WA,6150,-32.05066001,115.8453415,08 6258 6900,SOUTH METROPOLITAN,Primary Schools,PRIMARY SCHOOLS,KIN,Y06,42,39,41,48,49,54,50,53,,,,,,,,,376
5830,BAYNTON WEST PRIMARY SCHOOL,MARNIYARRA LOOP,BAYNTON,WA,6714,MARNIYARRA LOOP,BAYNTON,WA,6714,-20.75252283,116.79939,08 9187 6200,PILBARA,Primary Schools,PRIMARY SCHOOLS,KIN,Y06,80,107,115,92,112,99,122,79,,,,,,,,,806
5031,BAYSWATER PRIMARY SCHOOL,MURRAY STREET,BAYSWATER,WA,6053,MURRAY STREET,BAYSWATER,WA,6053,-31.92081606,115.9117733,08 9462 6600,NORTH METROPOLITAN,Primary Schools,PRIMARY SCHOOLS,KIN,Y06,60,54,64,62,52,57,51,47,,,,,,,,,447
5190,BAYULU REMOTE COMMUNITY SCHOOL,GOGO STATION ROAD,VIA FITZROY CROSSING,WA,6765,PO BOX 76,FITZROY CROSSING,WA,6765,-18.28637,125.58345,08 9163 8650,KIMBERLEY,Remote Community Schools,PRIMARY SCHOOLS,KIN,Y07,9,9,6,9,8,12,8,6,,8,,,,,,,75
5032,BEACHLANDS PRIMARY SCHOOL,50 WHITFIELD STREET,GERALDTON,WA,6530,PO BOX 7170,GERALDTON PO,WA,6531,-28.78770753,114.6043717,08 9923 6900,MIDWEST,Primary Schools,PRIMARY SCHOOLS,KIN,Y06,15,16,16,15,16,11,16,12,,,,,,,,,117
5033,BEACON PRIMARY SCHOOL,BROADBENT STREET,BEACON,WA,6472,C/- POST OFFICE,BEACON,WA,6472,-30.45065535,117.8688978,08 9686 0700,WHEATBELT,Primary Schools,PRIMARY SCHOOLS,KIN,Y05,1,6,3,4,3,2,3,,,,,,,,,,22
5034,BEACONSFIELD PRIMARY SCHOOL,5 HALE STREET,BEACONSFIELD,WA,6162,5 HALE STREET,BEACONSFIELD,WA,6162,-32.068989,115.7593864,08 9432 1000,SOUTH METROPOLITAN,Primary Schools,PRIMARY SCHOOLS,KIN,Y06,59,73,85,85,82,61,48,55,,,,,,,,,548
5720,BEAUMARIS PRIMARY SCHOOL,20 BEAUMARIS BOULEVARD,OCEAN REEF,WA,6027,20 BEAUMARIS BOULEVARD,OCEAN REEF,WA,6027,-31.74873142,115.7355637,08 6206 3100,NORTH METROPOLITAN,Primary Schools,PRIMARY SCHOOLS,KIN,Y06,44,52,66,78,79,83,64,102,,,,,,,,,568
5084,BECKENHAM PRIMARY SCHOOL,386 RAILWAY PARADE,BECKENHAM,WA,6107,386 RAILWAY PARADE,BECKENHAM,WA,6107,-32.02408598,115.9573041,08 9278 3700,SOUTH METROPOLITAN,Primary Schools,PRIMARY SCHOOLS,KIN,Y06,40,52,60,55,56,50,45,56,,,,,,,,,414
1349,BEECHBORO CHRISTIAN SCHOOL,375 MARSHALL ROAD,BEECHBORO,WA,6063,375 MARSHALL ROAD,BEECHBORO,WA,6063,-31.85664957,115.9340083,08 9377 5211,NORTH METROPOLITAN,NON-GOVT SCHOOLS,NON-GOVERNMENT,KIN,Y06,53,50,44,33,36,37,38,43,,,,,,,,,334
5696,BEECHBORO PRIMARY SCHOOL,20 KING ROAD,BEECHBORO,WA,6063,20 KING ROAD,BEECHBORO,WA,6063,-31.86780968,115.9357571,08 9392 5300,NORTH METROPOLITAN,Primary Schools,PRIMARY SCHOOLS,KIN,Y06,36,27,43,44,40,39,33,43,,,,,,,,,305
5756,BEELIAR PRIMARY SCHOOL,86 THE GRANGE,BEELIAR,WA,6164,86 THE GRANGE,BEELIAR,WA,6164,-32.13297396,115.8207228,08 6174 1400,SOUTH METROPOLITAN,Primary Schools,PRIMARY SCHOOLS,KIN,Y06,72,86,56,56,53,56,53,63,,,,,,,,,495
5859,BEENYUP PRIMARY SCHOOL,66 SHEPPARTON BOULEVARD,BYFORD,WA,6122,66 SHEPPARTON BOULEVARD,BYFORD,WA,6122,-32.233554,115.992722,08 9526 6500,SOUTH METROPOLITAN,Primary Schools,PRIMARY SCHOOLS,KIN,Y06,41,44,46,50,36,16,33,15,,,,,,,,,281
6057,BELDON EDUCATION SUPPORT CENTRE,10 PACIFIC WAY,BELDON,WA,6027,10 PACIFIC WAY,BELDON,WA,6027,-31.7746556,115.7572522,08 6207 3280,NORTH METROPOLITAN,Education Support Centres,EDUCATION SUPPORT,KIN,Y06,8,7,10,9,4,14,4,8,,,,,,,,,64
5674,BELDON PRIMARY SCHOOL,10 PACIFIC WAY,BELDON,WA,6027,10 PACIFIC WAY,BELDON,WA,6027,-31.7746556,115.7572522,08 6207 3240,NORTH METROPOLITAN,Primary Schools,PRIMARY SCHOOLS,KIN,Y06,40,41,31,55,39,46,24,43,,,,,,,,,319
5036,BELMAY PRIMARY SCHOOL,410 SYDENHAM STREET,CLOVERDALE,WA,6105,410 SYDENHAM STREET,CLOVERDALE,WA,6105,-31.9507814,115.9466374,08 6278 5400,SOUTH METROPOLITAN,Primary Schools,PRIMARY SCHOOLS,KIN,Y06,21,29,18,24,22,21,37,29,,,,,,,,,201
4005,BELMONT CITY COLLEGE,106 FISHER STREET,BELMONT,WA,6104,106 FISHER STREET,BELMONT,WA,6104,-31.95889136,115.9344344,08 9473 9800,SOUTH METROPOLITAN,Senior High Schools,SECONDARY SCHOOLS,Y07,Y12,,,,,,,,,,168,150,177,173,153,139,,960
5038,BELMONT PRIMARY SCHOOL,213 GREAT EASTERN HIGHWAY,BELMONT,WA,6104,213 GREAT EASTERN HIGHWAY,BELMONT,WA,6104,-31.94467587,115.9228256,08 6216 1800,SOUTH METROPOLITAN,Primary Schools,PRIMARY SCHOOLS,KIN,Y06,8,14,11,11,8,9,7,12,,,,,,,,,80
4153,BELRIDGE SECONDARY COLLEGE,17 GWENDOLINE DRIVE,BELDON,WA,6027,17 GWENDOLINE DRIVE,BELDON,WA,6027,-31.77038385,115.7631759,08 9408 8000,NORTH METROPOLITAN,Senior High Schools,SECONDARY SCHOOLS,Y07,Y12,,,,,,,,,,156,198,173,193,147,120,,987
6091,BELRIDGE SECONDARY EDUCATION SUPPORT CENTRE,17 GWENDOLINE DRIVE,BELDON,WA,6027,17 GWENDOLINE DRIVE,BELDON,WA,6027,-31.77038385,115.7631759,08 9408 8050,NORTH METROPOLITAN,Education Support Centres,EDUCATION SUPPORT,Y07,Y12,,,,,,,,,,21,24,26,17,13,24,,125
5039,BENCUBBIN PRIMARY SCHOOL,CNR MURRAY/MONGER STREETS,BENCUBBIN,WA,6477,C/- POST OFFICE,BENCUBBIN,WA,6477,-30.8076984,117.8572615,08 9685 2500,WHEATBELT,Primary Schools,PRIMARY SCHOOLS,KIN,Y06,6,3,7,1,4,4,2,6,,,,,,,,,33
5041,BENTLEY PRIMARY SCHOOL,15 HEDLEY STREET,BENTLEY,WA,6102,15 HEDLEY STREET,BENTLEY,WA,6102,-32.01035815,115.9115642,08 6455 8000,SOUTH METROPOLITAN,Primary Schools,PRIMARY SCHOOLS,KIN,Y06,40,37,39,41,39,28,36,25,,,,,,,,,285
5799,BERTRAM PRIMARY SCHOOL,CHAMPION DRIVE,BERTRAM,WA,6167,CHAMPION DRIVE,BERTRAM,WA,6167,-32.24665386,115.843541,08 6174 1000,SOUTH METROPOLITAN,Primary Schools,PRIMARY SCHOOLS,KIN,Y06,80,107,92,108,79,102,92,97,,,,,,,,,757
1285,BETHEL CHRISTIAN SCHOOL,20 BETHEL WAY,ALBANY,WA,6330,20 BETHEL WAY,ALBANY,WA,6330,-35.00481744,117.881185,08 9842 2100,SOUTH WEST,NON-GOVT SCHOOLS,NON-GOVERNMENT,KIN,Y12,34,33,28,27,26,24,35,26,,30,23,42,29,36,16,,409
4060,BEVERLEY DISTRICT HIGH SCHOOL,20 JOHN STREET,BEVERLEY,WA,6304,20 JOHN STREET,BEVERLEY,WA,6304,-32.10031422,116.9276944,08 9646 2500,WHEATBELT,District High Schools,DISTRICT HIGH SCHOOLS,KIN,Y12,13,17,13,16,15,25,17,15,,15,8,10,5,2,2,,173
5686,BIBRA LAKE PRIMARY SCHOOL,29 ANNOIS ROAD,BIBRA LAKE,WA,6163,29 ANNOIS ROAD,BIBRA LAKE,WA,6163,-32.09409186,115.8391505,08 6173 7100,SOUTH METROPOLITAN,Primary Schools,PRIMARY SCHOOLS,KIN,Y06,57,53,54,53,50,51,31,46,,,,,,,,,395
5044,BICTON PRIMARY SCHOOL,VIEW TERRACE,BICTON,WA,6157,VIEW TERRACE,BICTON,WA,6157,-32.03272881,115.786548,08 9205 5800,SOUTH METROPOLITAN,Primary Schools,PRIMARY SCHOOLS,KIN,Y06,60,70,73,82,68,53,65,49,,,,,,,,,520
5046,BINDOON PRIMARY SCHOOL,19 LEARNERS WAY,BINDOON,WA,6502,19 LEARNERS WAY,BINDOON,WA,6502,-31.38017209,116.0971002,08 9576 4500,NORTH METROPOLITAN,Primary Schools,PRIMARY SCHOOLS,KIN,Y06,18,23,20,10,19,19,18,12,,,,,,,,,139
5047,BINNU PRIMARY SCHOOL,LAUDER STREET,BINNU,WA,6532,C/- POST OFFICE,BINNU,WA,6532,-28.04197194,114.6755891,08 9936 0300,MIDWEST,Primary Schools,PRIMARY SCHOOLS,PPR,Y06,,1,4,,2,2,4,1,,,,,,,,,14
1328,BIRLIRR NGAWIYIWU CATHOLIC SCHOOL,RINGER SOAK (KUNDAT DJARU COMM),VIA HALLS CREEK,WA,6770,RINGER SOAK (KUNDAT DJARU COMM),VIA HALLS CREEK,WA,6770,-18.794047,128.615847,08 9168 8720,KIMBERLEY,NON-GOVT SCHOOLS,NON-GOVERNMENT,KIN,Y06,3,7,4,3,8,2,6,3,,,,,,,,,36
5808,BLETCHLEY PARK PRIMARY SCHOOL,LOT 5003 BALFOUR STREET,SOUTHERN RIVER,WA,6110,LOT 5003 BALFOUR STREET,SOUTHERN RIVER,WA,6110,-32.10259536,115.9462328,08 9234 6400,SOUTH METROPOLITAN,Primary Schools,PRIMARY SCHOOLS,KIN,Y06,74,76,103,109,90,102,114,129,,,,,,,,,797
1580,BLUE GUM MONTESSORI SCHOOL,11 HOPE ROAD,BIBRA LAKE,WA,6163,11 HOPE ROAD,BIBRA LAKE,WA,6163,-32.08519543,115.838553,08 9417 4060,SOUTH METROPOLITAN,NON-GOVT SCHOOLS,NON-GOVERNMENT,KIN,Y06,31,26,36,34,38,25,13,18,,,,,,,,,221
5049,BLUFF POINT PRIMARY SCHOOL,18 MITCHELL STREET,BLUFF POINT,WA,6530,PO BOX 7166,GERALDTON PO,WA,6531,-28.7403527,114.6215834,08 9923 6650,MIDWEST,Primary Schools,PRIMARY SCHOOLS,KIN,Y06,21,31,33,35,26,33,30,34,,,,,,,,,243
4213,BOB HAWKE COLLEGE,200 ROBERTS ROAD,SUBIACO,WA,6008,PO BOX 8150,SUBIACO,WA,6008,-31.944538,115.8323,08 9222 5600,NORTH METROPOLITAN,Senior High Schools,SECONDARY SCHOOLS,Y07,Y10,,,,,,,,,,330,324,325,284,,,,"1,263"
4061,BODDINGTON DISTRICT HIGH SCHOOL,25 POLLARD STREET,BODDINGTON,WA,6390,25 POLLARD STREET,BODDINGTON,WA,6390,-32.80157748,116.467088,08 9884 2900,WHEATBELT,District High Schools,DISTRICT HIGH SCHOOLS,KIN,Y10,19,36,27,37,29,21,29,26,,15,17,20,6,,,,282
1593,BOLD PARK COMMUNITY SCHOOL,61-63 POWIS STREET,WEMBLEY,WA,6014,61-63 POWIS STREET,WEMBLEY,WA,6014,-31.92384064,115.8231847,08 9387 5050,NORTH METROPOLITAN,NON-GOVT SCHOOLS,NON-GOVERNMENT,KIN,Y12,42,17,22,19,14,17,8,14,,5,13,15,16,18,6,,226
5052,BOLGART PRIMARY SCHOOL,28 SMITH STREET,BOLGART,WA,6568,28 SMITH STREET,BOLGART,WA,6568,-31.27358225,116.5108606,08 9627 5300,WHEATBELT,Primary Schools,PRIMARY SCHOOLS,KIN,Y05,3,5,2,8,2,4,3,,,,,,,,,,27
5053,BOORAGOON PRIMARY SCHOOL,10 CLEMENTS ROAD,BOORAGOON,WA,6154,10 CLEMENTS ROAD,BOORAGOON,WA,6154,-32.03553443,115.8264595,08 6274 1800,SOUTH METROPOLITAN,Primary Schools,PRIMARY SCHOOLS,KIN,Y06,41,50,51,56,47,65,58,55,,,,,,,,,423
5054,BORDEN PRIMARY SCHOOL,STONE STREET,BORDEN,WA,6338,STONE STREET,BORDEN,WA,6338,-34.07290497,118.2630312,08 9828 3300,SOUTH WEST,Primary Schools,PRIMARY SCHOOLS,KIN,Y05,3,3,,4,2,6,2,,,,,,,,,,20
5055,BOULDER PRIMARY SCHOOL,LANE STREET,BOULDER,WA,6432,LOCKED BAG 1,BOULDER,WA,6432,-30.78003681,121.4875325,08 9092 4100,GOLDFIELDS,Primary Schools,PRIMARY SCHOOLS,KIN,Y06,27,28,38,32,37,31,26,36,,,,,,,,,255
5058,BOYANUP PRIMARY SCHOOL,45 THOMAS STREET,BOYANUP,WA,6237,45 THOMAS STREET,BOYANUP,WA,6237,-33.48596223,115.7308445,08 9732 3700,SOUTH WEST,Primary Schools,PRIMARY SCHOOLS,KIN,Y06,11,17,21,17,21,15,14,10,,,,,,,,,126
5718,BOYARE PRIMARY SCHOOL,9 THREADLEAF WAY,MIRRABOOKA,WA,6061,9 THREADLEAF WAY,MIRRABOOKA,WA,6061,-31.85724948,115.8734207,08 9338 2500,NORTH METROPOLITAN,Primary Schools,PRIMARY SCHOOLS,KIN,Y06,19,25,16,25,33,29,23,28,,,,,,,,,198
4062,BOYUP BROOK DISTRICT HIGH SCHOOL,77 BARRON STREET,BOYUP BROOK,WA,6244,77 BARRON STREET,BOYUP BROOK,WA,6244,-33.83634699,116.3913376,08 9765 0000,SOUTH WEST,District High Schools,DISTRICT HIGH SCHOOLS,KIN,Y10,10,20,17,14,20,11,16,13,,17,23,14,10,,,,185
5863,BRABHAM PRIMARY SCHOOL,31 LAKEFIELD DRIVE,BRABHAM,WA,6055,31 LAKEFIELD DRIVE,BRABHAM,WA,6055,-31.821305,115.97205,08 9265 1840,NORTH METROPOLITAN,Primary Schools,PRIMARY SCHOOLS,KIN,Y06,200,191,176,129,115,89,87,83,,,,,,,,,"1,070"
5638,BRAESIDE PRIMARY SCHOOL,CARINYA GARDENS,KATANNING,WA,6317,CARINYA GARDENS,KATANNING,WA,6317,-33.679,117.56,08 9821 3500,WHEATBELT,Primary Schools,PRIMARY SCHOOLS,KIN,Y06,16,20,19,16,17,21,19,30,,,,,,,,,158
5624,BRAMFIELD PARK PRIMARY SCHOOL,YULE STREET,MADDINGTON,WA,6109,YULE STREET,MADDINGTON,WA,6109,-32.04680274,115.9950359,08 9217 8600,SOUTH METROPOLITAN,Primary Schools,PRIMARY SCHOOLS,KIN,Y06,32,50,50,48,36,39,50,46,,,,,,,,,351
5060,BREMER BAY PRIMARY SCHOOL,GARNETT ROAD,BREMER BAY,WA,6338,GARNETT ROAD,BREMER BAY,WA,6338,-34.393283,119.37476,08 9837 1200,SOUTH WEST,Primary Schools,PRIMARY SCHOOLS,PPR,Y06,,11,4,1,3,5,4,2,,,,,,,,,30
5061,BRENTWOOD PRIMARY SCHOOL,2 DAWSON ROAD,BRENTWOOD,WA,6153,2 DAWSON ROAD,BRENTWOOD,WA,6153,-32.04149754,115.847177,08 6258 6950,SOUTH METROPOLITAN,Primary Schools,PRIMARY SCHOOLS,KIN,Y06,34,43,31,40,39,54,50,47,,,,,,,,,338
4007,BRIDGETOWN HIGH SCHOOL,58 STEERE STREET,BRIDGETOWN,WA,6255,PO BOX 600,BRIDGETOWN,WA,6255,-33.95993882,116.1420907,08 9761 0100,SOUTH WEST,High Schools,SECONDARY SCHOOLS,Y07,Y10,,,,,,,,,,46,49,37,42,,,,174
5062,BRIDGETOWN PRIMARY SCHOOL,178 ROE STREET,BRIDGETOWN,WA,6255,178 ROE STREET,BRIDGETOWN,WA,6255,-33.95485467,116.1407977,08 9761 0150,SOUTH WEST,Primary Schools,PRIMARY SCHOOLS,KIN,Y06,18,29,23,27,23,38,32,31,,,,,,,,,221
5586,BROOKMAN PRIMARY SCHOOL,34 BROOKMAN AVENUE,LANGFORD,WA,6147,34 BROOKMAN AVENUE,LANGFORD,WA,6147,-32.03670459,115.9390727,08 9366 0950,SOUTH METROPOLITAN,Primary Schools,PRIMARY SCHOOLS,KIN,Y06,40,42,48,36,41,35,42,45,,,,,,,,,329
4063,BROOKTON DISTRICT HIGH SCHOOL,20 TILLER STREET,BROOKTON,WA,6306,20 TILLER STREET,BROOKTON,WA,6306,-32.37207392,117.0086817,08 9642 5000,WHEATBELT,District High Schools,DISTRICT HIGH SCHOOLS,KIN,Y10,10,9,12,17,16,14,8,12,,2,6,6,1,,,,113
5839,BROOME NORTH PRIMARY SCHOOL,100 TANAMI DRIVE,BROOME,WA,6725,PO BOX 5996,BROOME,WA,6725,-17.9266374,122.2301416,08 9195 3000,KIMBERLEY,Primary Schools,PRIMARY SCHOOLS,KIN,Y06,40,44,60,54,59,53,44,51,,,,,,,,,405
5712,BROOME PRIMARY SCHOOL,WELD STREET,BROOME,WA,6725,PO BOX 1744,BROOME,WA,6725,-17.96120109,122.2379626,08 9194 7500,KIMBERLEY,Primary Schools,PRIMARY SCHOOLS,KIN,Y06,35,36,50,47,50,44,47,52,,,,,,,,,361
4064,BROOME SENIOR HIGH SCHOOL,FREDERICK STREET,BROOME,WA,6725,PO BOX 1316,BROOME,WA,6725,-17.95614273,122.2323264,08 9195 3100,KIMBERLEY,Senior High Schools,SECONDARY SCHOOLS,Y07,Y12,,,,,,,,,,154,130,146,154,125,92,,801
5065,BROOMEHILL PRIMARY SCHOOL,HASSELL STREET,BROOMEHILL,WA,6318,C/- POST OFFICE,BROOMEHILL,WA,6318,-33.84507375,117.6342811,08 9824 0500,WHEATBELT,Primary Schools,PRIMARY SCHOOLS,KIN,Y06,4,5,3,2,3,9,4,5,,,,,,,,,35
4065,BRUCE ROCK DISTRICT HIGH SCHOOL,37 DUNSTALL STREET,BRUCE ROCK,WA,6418,37 DUNSTALL STREET,BRUCE ROCK,WA,6418,-31.87363474,118.1476627,08 9082 1900,WHEATBELT,District High Schools,DISTRICT HIGH SCHOOLS,KIN,Y10,12,9,11,14,5,11,13,15,,7,9,8,6,,,,120
5067,BRUNSWICK JUNCTION PRIMARY SCHOOL,6 VINCENT STREET,BRUNSWICK JUNCTION,WA,6224,PO BOX 201,BRUNSWICK JUNCTION,WA,6224,-33.2517339,115.8341389,08 9788 9100,SOUTH WEST,Primary Schools,PRIMARY SCHOOLS,KIN,Y06,11,5,6,12,6,8,10,5,,,,,,,,,63
5574,BULL CREEK PRIMARY SCHOOL,32 HARDY STREET,BULL CREEK,WA,6149,32 HARDY STREET,BULL CREEK,WA,6149,-32.06013661,115.8610064,08 6216 4400,SOUTH METROPOLITAN,Primary Schools,PRIMARY SCHOOLS,KIN,Y06,34,34,39,48,43,59,56,61,,,,,,,,,374
4066,BULLSBROOK COLLEGE,CHITTERING ROAD,BULLSBROOK,WA,6084,CHITTERING ROAD,BULLSBROOK,WA,6084,-31.66171848,116.033179,08 9501 7600,NORTH METROPOLITAN,K-12 SCHOOLS,K-12 SCHOOLS,KIN,Y12,31,57,66,77,60,50,73,61,,85,87,72,80,61,56,,916
8039,BULLSBROOK COMMUNITY KINDERGARTEN,25 CAPORN STREET,EAST BULLSBROOK,WA,6084,PO BOX 525,BULLSBROOK,WA,6084,-31.66245045,116.0303767,08 9571 1392,NORTH METROPOLITAN,Community Kindergartens,COMMUNITY KINDERGARTENS,KIN,KIN,28,,,,,,,,,,,,,,,,28
1524,BUNBURY BAPTIST COLLEGE,133 NORTON PROMENADE,DALYELLUP,WA,6230,133 NORTON PROMENADE,DALYELLUP,WA,6230,-33.400403,115.627001,08 9790 0000,SOUTH WEST,NON-GOVT SCHOOLS,NON-GOVERNMENT,KIN,Y11,46,37,50,56,47,42,53,60,,88,84,91,71,33,,,758
1222,BUNBURY CATHEDRAL GRAMMAR SCHOOL,5 ALLEN ROAD,GELORUP,WA,6230,5 ALLEN ROAD,GELORUP,WA,6230,-33.404668,115.63864,08 9722 6000,SOUTH WEST,NON-GOVT SCHOOLS,NON-GOVERNMENT,KIN,Y12,26,16,27,19,22,41,38,38,,63,79,81,76,68,54,,648
1029,BUNBURY CATHOLIC COLLEGE,LOT 4 RODSTED STREET,BUNBURY,WA,6230,LOT 4 RODSTED STREET,BUNBURY,WA,6230,-33.34342203,115.6614239,08 9721 0000,SOUTH WEST,NON-GOVT SCHOOLS,NON-GOVERNMENT,Y07,Y12,,,,,,,,,,191,191,168,168,133,121,,972
5070,BUNBURY PRIMARY SCHOOL,2-18 LOVEGROVE AVENUE,BUNBURY,WA,6230,PO BOX 1908,BUNBURY,WA,6231,-33.33305655,115.6381042,08 9796 3050,SOUTH WEST,Primary Schools,PRIMARY SCHOOLS,KIN,Y06,44,48,53,55,55,63,63,65,,,,,,,,,446
1521,BUNBURY REGIONAL COMMUNITY COLLEGE,"LEVEL 1, 16 VICTORIA STREET",BUNBURY,WA,6230,"LEVEL 1, 16 VICTORIA STREET",BUNBURY,WA,6230,-33.32065,115.63714,0459 915 803 ,SOUTH WEST,NON-GOVT SCHOOLS,NON-GOVERNMENT,Y10,Y12,,,,,,,,,,,,,51,56,53,,160
4008,BUNBURY SENIOR HIGH SCHOOL,10-44 HAIG CRESCENT,BUNBURY,WA,6230,10-44 HAIG CRESCENT,BUNBURY,WA,6230,-33.32746917,115.6326077,08 9797 8900,SOUTH WEST,Senior High Schools,SECONDARY SCHOOLS,Y07,Y12,,,,,,,,,,187,188,196,177,135,99,,982
5508,BUNGAREE PRIMARY SCHOOL,9 CENTAURUS STREET,ROCKINGHAM,WA,6168,9 CENTAURUS STREET,ROCKINGHAM,WA,6168,-32.29110842,115.7378237,08 9553 8400,SOUTH METROPOLITAN,Primary Schools,PRIMARY SCHOOLS,KIN,Y06,33,25,32,39,21,40,24,36,,,,,,,,,250
6031,BURBRIDGE SCHOOL,46 BURBRIDGE AVENUE,KOONDOOLA,WA,6064,46 BURBRIDGE AVENUE,KOONDOOLA,WA,6064,-31.83872675,115.8619753,08 9345 6700,NORTH METROPOLITAN,Education Support Schools,EDUCATION SUPPORT,KIN,Y12,1,4,1,3,3,8,2,1,,5,3,8,4,5,12,,60
5868,BURNS BEACH PRIMARY SCHOOL,10 WATCOMBE AVENUE,BURNS BEACH,WA,6028,10 WATCOMBE AVENUE,BURNS BEACH,WA,6028,-31.727164,115.729576,08 9233 6850,NORTH METROPOLITAN,Primary Schools,PRIMARY SCHOOLS,KIN,Y06,38,53,46,30,38,36,22,28,,,,,,,,,291
5591,BURRENDAH PRIMARY SCHOOL,CASTLEREAGH CLOSE,WILLETTON,WA,6155,CASTLEREAGH CLOSE,WILLETTON,WA,6155,-32.05988334,115.8805782,08 9266 6200,SOUTH METROPOLITAN,Primary Schools,PRIMARY SCHOOLS,KIN,Y06,31,55,69,57,76,114,96,99,,,,,,,,,597
5715,BURRINGURRAH REMOTE COMMUNITY SCHOOL,BURRINGURRAH COMMUNITY,MOUNT JAMES,WA,6642,MOUNT JAMES LOCKED BAG,MEEKATHARRA,WA,6642,-24.651178,116.932686,08 9943 1650,MIDWEST,Remote Community Schools,PRIMARY SCHOOLS,KIN,Y12,2,3,2,3,1,2,7,1,,5,2,2,3,1,1,,35
5076,BUSSELTON PRIMARY SCHOOL,AVOCET BOULEVARD,BUSSELTON,WA,6280,AVOCET BOULEVARD,BUSSELTON,WA,6280,-33.63955416,115.3763212,08 9751 6400,SOUTH WEST,Primary Schools,PRIMARY SCHOOLS,KIN,Y06,16,20,21,37,28,34,35,27,,,,,,,,,218
4009,BUSSELTON SENIOR HIGH SCHOOL,136-156 BUSSELL HIGHWAY,BUSSELTON,WA,6280,136-156 BUSSELL HIGHWAY,BUSSELTON,WA,6280,-33.6575772,115.3250971,08 9751 8900,SOUTH WEST,Senior High Schools,SECONDARY SCHOOLS,Y07,Y12,,,,,,,,,,103,107,110,118,106,84,,628
4191,BUTLER COLLEGE,15 MCCORMACK BOULEVARD,BUTLER,WA,6036,PO BOX 317,QUINNS ROCKS,WA,6030,-31.65166367,115.7087008,08 9561 4200,NORTH METROPOLITAN,Senior High Schools,SECONDARY SCHOOLS,Y07,Y12,,,,,,,,,,173,205,219,251,234,193,,"1,275"
5783,BUTLER PRIMARY SCHOOL,30 TOLLESBURY AVENUE,BUTLER,WA,6036,PO BOX 339,QUINNS ROCKS,WA,6030,-31.6461099,115.7027364,08 9561 7700,NORTH METROPOLITAN,Primary Schools,PRIMARY SCHOOLS,KIN,Y06,51,70,62,68,67,74,62,76,,,,,,,,,530
8313,BYFORD COMMUNITY KINDERGARTEN,49 PARK ROAD,BYFORD,WA,6122,49 PARK ROAD,BYFORD,WA,6122,-32.21674443,116.0124505,08 9525 1125,SOUTH METROPOLITAN,Community Kindergartens,COMMUNITY KINDERGARTENS,KIN,KIN,17,,,,,,,,,,,,,,,,17
1435,BYFORD JOHN CALVIN SCHOOL,30 SOLDIERS ROAD,BYFORD,WA,6122,30 SOLDIERS ROAD,BYFORD,WA,6122,-32.22411516,116.0057146,08 9525 0261,SOUTH METROPOLITAN,NON-GOVT SCHOOLS,NON-GOVERNMENT,KIN,Y06,27,34,27,33,24,23,37,25,,,,,,,,,230
5078,BYFORD PRIMARY SCHOOL,36 CLIFTON STREET,BYFORD,WA,6122,36 CLIFTON STREET,BYFORD,WA,6122,-32.21943768,116.0121953,08 9526 6300,SOUTH METROPOLITAN,Primary Schools,PRIMARY SCHOOLS,KIN,Y06,31,57,49,57,43,53,41,44,,,,,,,,,375
4193,BYFORD SECONDARY COLLEGE,57 ABERNETHY ROAD,BYFORD,WA,6122,57 ABERNETHY ROAD,BYFORD,WA,6122,-32.22343162,116.0018793,08 9526 7700,SOUTH METROPOLITAN,Senior High Schools,SECONDARY SCHOOLS,Y07,Y12,,,,,,,,,,284,255,249,276,238,156,,"1,458"
5705,CABLE BEACH PRIMARY SCHOOL,DAKAS STREET,BROOME,WA,6725,PO BOX 1453,BROOME,WA,6725,-17.95879062,122.2164767,08 9194 7300,KIMBERLEY,Primary Schools,PRIMARY SCHOOLS,KIN,Y06,30,27,36,42,32,38,36,40,,,,,,,,,281
5079,CADOUX PRIMARY SCHOOL,3821 CADOUX-KOORDA ROAD,CADOUX,WA,6466,PO BOX 29,CADOUX,WA,6466,-30.77070399,117.1366031,08 9673 0670,WHEATBELT,Primary Schools,PRIMARY SCHOOLS,KIN,Y06,2,4,1,1,3,4,1,2,,,,,,,,,18
5800,CALADENIA PRIMARY SCHOOL,89 BOARDMAN ROAD,CANNING VALE,WA,6155,89 BOARDMAN ROAD,CANNING VALE,WA,6155,-32.07496451,115.932729,08 6258 9350,SOUTH METROPOLITAN,Primary Schools,PRIMARY SCHOOLS,KIN,Y06,100,119,120,121,112,148,134,111,,,,,,,,,965
5080,CALINGIRI PRIMARY SCHOOL,18 CAVELL STREET,CALINGIRI,WA,6569,18 CAVELL STREET,CALINGIRI,WA,6569,-31.090094,116.449243,08 9628 8500,WHEATBELT,Primary Schools,PRIMARY SCHOOLS,KIN,Y06,4,2,3,4,7,2,4,2,,,,,,,,,28
5081,CALISTA PRIMARY SCHOOL,22 HARLOW ROAD,CALISTA,WA,6167,PO BOX 457,KWINANA,WA,6966,-32.24514843,115.8106046,08 9414 2350,SOUTH METROPOLITAN,Primary Schools,PRIMARY SCHOOLS,KIN,Y06,48,55,55,65,44,53,66,53,,,,,,,,,439
5533,CAMBOON PRIMARY SCHOOL,FORDER ROAD,NORANDA,WA,6062,FORDER ROAD,NORANDA,WA,6062,-31.87744461,115.8910542,08 9218 1400,NORTH METROPOLITAN,Primary Schools,PRIMARY SCHOOLS,KIN,Y06,36,42,42,44,45,46,46,49,,,,,,,,,350
5777,CAMPBELL PRIMARY SCHOOL,CAMPBELL ROAD,CANNING VALE,WA,6155,CAMPBELL ROAD,CANNING VALE,WA,6155,-32.08812075,115.9307582,08 9456 8300,SOUTH METROPOLITAN,Primary Schools,PRIMARY SCHOOLS,KIN,Y06,59,75,67,56,58,80,67,68,,,,,,,,,530
4500,CANNING COLLEGE,MARQUIS STREET,BENTLEY,WA,6102,PO BOX 1148,BENTLEY DC,WA,6983,-32.00942925,115.8971202,08 9278 3500,SOUTH METROPOLITAN,Senior Colleges,SECONDARY SCHOOLS,Y10,Y12,,,,,,,,,,,,,4,8,73,31,116
4174,CANNING VALE COLLEGE,26 DUMBARTON ROAD,CANNING VALE,WA,6155,26 DUMBARTON ROAD,CANNING VALE,WA,6155,-32.08291838,115.9227838,08 9334 9000,SOUTH METROPOLITAN,Senior High Schools,SECONDARY SCHOOLS,Y07,Y12,,,,,,,,,,234,235,211,249,198,203,,"1,330"
6089,CANNING VALE EDUCATION SUPPORT CENTRE,THE RAMBLE,CANNING VALE,WA,6155,THE RAMBLE,CANNING VALE,WA,6155,-32.0760558,115.9128115,08 9427 6030,SOUTH METROPOLITAN,Education Support Centres,EDUCATION SUPPORT,KIN,Y06,9,7,5,9,5,2,3,6,,,,,,,,,46
5735,CANNING VALE PRIMARY SCHOOL,THE RAMBLE,CANNING VALE,WA,6155,THE RAMBLE,CANNING VALE,WA,6155,-32.0760558,115.9128115,08 9427 6000,SOUTH METROPOLITAN,Primary Schools,PRIMARY SCHOOLS,KIN,Y06,45,42,55,56,56,63,63,52,,,,,,,,,432
4169,CANNINGTON COMMUNITY COLLEGE,147 WHARF STREET,CANNINGTON,WA,6107,147 WHARF STREET,CANNINGTON,WA,6107,-32.013947,115.9370814,08 9351 2400,SOUTH METROPOLITAN,District High Schools,DISTRICT HIGH SCHOOLS,KIN,Y10,38,38,44,39,33,40,34,29,,127,130,130,122,,,,804
6083,CANNINGTON COMMUNITY EDUCATION SUPPORT CENTRE,147 WHARF STREET,CANNINGTON,WA,6107,147 WHARF STREET,CANNINGTON,WA,6107,-32.013947,115.9370814,08 9351 2480,SOUTH METROPOLITAN,Education Support Centres,EDUCATION SUPPORT,Y07,Y12,,,,,,,,,,20,20,20,21,20,22,,123
4178,CAPE NATURALISTE COLLEGE,30 YEBBLE DRIVE,VASSE,WA,6280,30 YEBBLE DRIVE,VASSE,WA,6280,-33.67693545,115.2438891,08 9746 3500,SOUTH WEST,Senior High Schools,SECONDARY SCHOOLS,Y07,Y12,,,,,,,,,,229,238,176,213,143,110,,"1,109"
5086,CAPEL PRIMARY SCHOOL,21 BARLEE ROAD,CAPEL,WA,6271,21 BARLEE ROAD,CAPEL,WA,6271,-33.55724062,115.5647487,08 9727 9100,SOUTH WEST,Primary Schools,PRIMARY SCHOOLS,KIN,Y06,42,31,41,41,30,35,48,45,,,,,,,,,313
5794,CARALEE COMMUNITY SCHOOL,24 WINNACOTT STREET,WILLAGEE,WA,6156,PO BOX 1031,WILLAGEE,WA,6156,-32.05149344,115.8043461,08 9312 4800,SOUTH METROPOLITAN,Primary Schools,PRIMARY SCHOOLS,KIN,Y06,22,48,27,54,35,40,45,51,,,,,,,,,322
5543,CARCOOLA PRIMARY SCHOOL,WISTERIA CRESCENT,PINJARRA,WA,6208,PO BOX 475,PINJARRA,WA,6208,-32.605769,115.893504,08 9531 5900,SOUTH METROPOLITAN,Primary Schools,PRIMARY SCHOOLS,KIN,Y06,18,9,10,11,11,14,18,17,,,,,,,,,108
1415,CAREY BAPTIST COLLEGE,51 WRIGHT ROAD,HARRISDALE,WA,6112,51 WRIGHT ROAD,HARRISDALE,WA,6112,-32.11159158,115.9355423,08 9394 9111,SOUTH METROPOLITAN,NON-GOVT SCHOOLS,NON-GOVERNMENT,KIN,Y12,77,78,78,77,79,85,85,85,,157,153,154,155,153,138,,"1,554"
1492,CAREY BAPTIST COLLEGE - FORRESTDALE,540 NICHOLSON ROAD,FORRESTDALE,WA,6112,540 NICHOLSON ROAD,FORRESTDALE,WA,6112,-32.16104802,115.9181942,08 6166 2205,SOUTH METROPOLITAN,NON-GOVT SCHOOLS,NON-GOVERNMENT,KIN,Y11,49,52,52,52,49,48,48,43,,58,59,46,41,50,,,647
5088,CAREY PARK PRIMARY SCHOOL,ECCLESTONE STREET,CAREY PARK,WA,6230,ECCLESTONE STREET,CAREY PARK,WA,6230,-33.34906206,115.6505098,08 9796 2900,SOUTH WEST,Primary Schools,PRIMARY SCHOOLS,KIN,Y06,39,28,32,39,24,31,30,35,,,,,,,,,258
5605,CARINE PRIMARY SCHOOL,58 OSMASTON ROAD,CARINE,WA,6020,58 OSMASTON ROAD,CARINE,WA,6020,-31.85137169,115.7725012,08 9378 5600,NORTH METROPOLITAN,Primary Schools,PRIMARY SCHOOLS,KIN,Y06,51,61,69,71,76,80,84,82,,,,,,,,,574
4057,CARINE SENIOR HIGH SCHOOL,51 EVERINGHAM STREET,CARINE,WA,6020,51 EVERINGHAM STREET,CARINE,WA,6020,-31.85299735,115.775848,08 6235 7500,NORTH METROPOLITAN,Senior High Schools,SECONDARY SCHOOLS,Y07,Y12,,,,,,,,,,427,440,424,435,377,322,,"2,425"
5090,CARLISLE PRIMARY SCHOOL,1 WRIGHT STREET,KEWDALE,WA,6105,1 WRIGHT STREET,KEWDALE,WA,6105,-31.972706,115.921255,08 9264 7650,SOUTH METROPOLITAN,Primary Schools,PRIMARY SCHOOLS,KIN,Y06,38,39,41,37,44,36,43,35,,,,,,,,,313
1037,CARMEL ADVENTIST COLLEGE,210 GLENISLA ROAD,CARMEL,WA,6076,210 GLENISLA ROAD,CARMEL,WA,6076,-32.01473096,116.0940371,08 9293 5333,SOUTH METROPOLITAN,NON-GOVT SCHOOLS,NON-GOVERNMENT,Y07,Y12,,,,,,,,,,29,44,23,32,37,23,,188
1020,CARMEL ADVENTIST COLLEGE PRIMARY SCHOOL,18 FIRST AVENUE,CARMEL,WA,6076,18 FIRST AVENUE,CARMEL,WA,6076,-32.006706,116.091127,08 9291 6399,SOUTH METROPOLITAN,NON-GOVT SCHOOLS,NON-GOVERNMENT,KIN,Y06,21,13,13,22,18,23,19,19,,,,,,,,,148
1231,CARMEL SCHOOL,123 CRESSWELL ROAD,DIANELLA,WA,6059,123 CRESSWELL ROAD,DIANELLA,WA,6059,-31.89910743,115.8620749,08 9276 1644,NORTH METROPOLITAN,NON-GOVT SCHOOLS,NON-GOVERNMENT,KIN,Y12,41,24,32,30,37,30,30,25,,29,35,21,25,29,33,,421
5845,CARNABY RISE PRIMARY SCHOOL,POMODORA AVENUE,LANDSDALE,WA,6065,POMODORA AVENUE,LANDSDALE,WA,6065,-31.81744,115.874989,08 6401 8100,NORTH METROPOLITAN,Primary Schools,PRIMARY SCHOOLS,KIN,Y06,80,78,101,94,97,77,80,88,,,,,,,,,695
4067,CARNAMAH DISTRICT HIGH SCHOOL,48 MCPHERSON STREET,CARNAMAH,WA,6517,48 MCPHERSON STREET,CARNAMAH,WA,6517,-29.68727976,115.893099,08 9987 1000,MIDWEST,District High Schools,DISTRICT HIGH SCHOOLS,KIN,Y12,5,5,3,2,3,7,5,7,,10,3,8,3,4,4,,69
1400,CARNARVON CHRISTIAN SCHOOL,30 BABBAGE ISLAND ROAD,CARNARVON,WA,6701,30 BABBAGE ISLAND ROAD,CARNARVON,WA,6701,-24.87551778,113.6576221,08 9941 4533,MIDWEST,NON-GOVT SCHOOLS,NON-GOVERNMENT,KIN,Y06,19,15,17,7,7,4,9,7,,,,,,,,,85
4941,CARNARVON COMMUNITY COLLEGE,23-27 MARMION STREET,EAST CARNARVON,WA,6701,PO BOX 648,CARNARVON,WA,6701,-24.867098,113.676415,08 9941 6000,MIDWEST,K-12 SCHOOLS,K-12 SCHOOLS,KIN,Y12,16,27,29,36,29,23,38,42,,40,33,27,36,24,23,,423
5926,CARNARVON SCHOOL OF THE AIR,20 CARNARVON ROAD,CARNARVON,WA,6701,PMB 100,CARNARVON,WA,6701,-24.88431096,113.6607577,08 9947 2600,MIDWEST,Distance Education,PRIMARY SCHOOLS,KIN,Y06,3,3,7,7,11,7,5,11,,,,,,,,,54
5782,CARRAMAR PRIMARY SCHOOL,71 HOUGHTON DRIVE,CARRAMAR,WA,6031,71 HOUGHTON DRIVE,CARRAMAR,WA,6031,-31.71147916,115.7857211,08 9405 0600,NORTH METROPOLITAN,Primary Schools,PRIMARY SCHOOLS,KIN,Y06,60,79,64,78,70,75,94,99,,,,,,,,,619
6016,CARSON STREET SCHOOL,19 CARSON STREET,EAST VICTORIA PARK,WA,6101,19 CARSON STREET,EAST VICTORIA PARK,WA,6101,-31.99317499,115.9060766,08 6216 4950,SOUTH METROPOLITAN,Education Support Schools,EDUCATION SUPPORT,KIN,Y07,4,10,15,5,13,13,10,16,,2,,,,,,,88
1436,CASA MIA MONTESSORI COMMUNITY SCHOOL,11 HAMILTON STREET,BASSENDEAN,WA,6054,11 HAMILTON STREET,BASSENDEAN,WA,6054,-31.90308107,115.9519135,08 9279 2209,NORTH METROPOLITAN,NON-GOVT SCHOOLS,NON-GOVERNMENT,KIN,Y06,16,13,8,9,2,8,3,3,,,,,,,,,62
5572,CASCADE PRIMARY SCHOOL,LOT 50 ASHA COURT,CASCADE,WA,6450,RMB 9152,ESPERANCE,WA,6450,-33.46836264,121.0723384,08 9075 1350,GOLDFIELDS,Primary Schools,PRIMARY SCHOOLS,KIN,Y06,2,3,3,6,3,6,6,2,,,,,,,,,31
6037,CASSIA EDUCATION SUPPORT CENTRE,16 BORONIA CLOSE,SOUTH HEDLAND,WA,6722,PO BOX 2138,SOUTH HEDLAND,WA,6722,-20.40888577,118.6079095,08 9172 8560,PILBARA,Education Support Centres,EDUCATION SUPPORT,KIN,Y06,4,8,4,4,6,5,3,2,,,,,,,,,36
5652,CASSIA PRIMARY SCHOOL,16 BORONIA CLOSE,SOUTH HEDLAND,WA,6722,PO BOX 2138,SOUTH HEDLAND,WA,6722,-20.40888577,118.6079095,08 9172 8500,PILBARA,Primary Schools,PRIMARY SCHOOLS,KIN,Y06,54,67,56,68,57,58,66,64,,,,,,,,,490
6030,CASTLEREAGH SCHOOL,CASTLEREAGH CLOSE,WILLETTON,WA,6155,CASTLEREAGH CLOSE,WILLETTON,WA,6155,-32.06093787,115.8818087,08 9266 6100,SOUTH METROPOLITAN,Education Support Schools,EDUCATION SUPPORT,KIN,Y12,3,4,4,3,7,3,4,2,,9,8,5,7,4,9,,72
5095,CASTLETOWN PRIMARY SCHOOL,EASTON ROAD,ESPERANCE,WA,6450,EASTON ROAD,ESPERANCE,WA,6450,-33.83182737,121.9084582,08 9076 2800,GOLDFIELDS,Primary Schools,PRIMARY SCHOOLS,KIN,Y06,56,52,73,52,73,72,60,91,,,,,,,,,529
5096,CAVERSHAM PRIMARY SCHOOL,65 COAST ROAD,WEST SWAN,WA,6055,65 COAST ROAD,WEST SWAN,WA,6055,-31.85860491,115.9831127,08 9218 6850,NORTH METROPOLITAN,Primary Schools,PRIMARY SCHOOLS,KIN,Y06,57,50,58,51,39,55,53,46,,,,,,,,,409
5846,CAVERSHAM VALLEY PRIMARY SCHOOL,60 SUMMERVILLE BOULEVARD,CAVERSHAM,WA,6055,60 SUMMERVILLE BOULEVARD,CAVERSHAM,WA,6055,-31.867901,115.968879,08 9461 2700,NORTH METROPOLITAN,Primary Schools,PRIMARY SCHOOLS,KIN,Y06,79,82,122,90,88,68,55,52,,,,,,,,,636
4132,CECIL ANDREWS COLLEGE,39 SEVILLE DRIVE,ARMADALE,WA,6112,PO BOX 295,ARMADALE,WA,6992,-32.14118727,115.9918834,08 9234 3400,SOUTH METROPOLITAN,Senior High Schools,SECONDARY SCHOOLS,Y07,Y12,,,,,,,,,,152,138,183,184,155,132,,944
4052,CENTRAL MIDLANDS SENIOR HIGH SCHOOL,RANFURLY STREET,MOORA,WA,6510,RANFURLY STREET,MOORA,WA,6510,-30.64115241,116.0152142,08 9653 9200,WHEATBELT,Senior High Schools,SECONDARY SCHOOLS,Y07,Y12,,,,,,,,,,39,21,40,31,26,21,,178
5558,CERVANTES PRIMARY SCHOOL,26 IBERIA STREET,CERVANTES,WA,6511,PO BOX 42,CERVANTES,WA,6511,-30.4991469,115.0659247,08 9688 5000,MIDWEST,Primary Schools,PRIMARY SCHOOLS,KIN,Y06,8,3,7,5,8,3,5,7,,,,,,,,,46
5567,CHALLIS COMMUNITY PRIMARY SCHOOL,40 BRAEMORE STREET,ARMADALE,WA,6112,40 BRAEMORE STREET,ARMADALE,WA,6112,-32.13924553,116.0006497,08 9391 4100,SOUTH METROPOLITAN,Primary Schools,PRIMARY SCHOOLS,KIN,Y06,97,100,117,114,115,121,109,124,,,,,,,,,897
4996,CHAMPION BAY SENIOR HIGH SCHOOL,HIGHBURY STREET,GERALDTON,WA,6530,PMB 102,GERALDTON,WA,6530,-28.79463546,114.63296,08 9965 8300,MIDWEST,Senior High Schools,SECONDARY SCHOOLS,Y07,Y12,,,,,,,,,,159,155,149,133,100,124,,820
5097,CHAPMAN VALLEY PRIMARY SCHOOL,3310 CHAPMAN VALLEY ROAD,NABAWA,WA,6532,PO BOX 28,NABAWA,WA,6532,-28.49970321,114.7915149,08 9988 1200,MIDWEST,Primary Schools,PRIMARY SCHOOLS,PPR,Y06,,3,1,1,4,4,1,1,,,,,,,,,15
5719,CHARTHOUSE PRIMARY SCHOOL,43 RAND AVENUE,WAIKIKI,WA,6169,43 RAND AVENUE,WAIKIKI,WA,6169,-32.31714699,115.7508427,08 9591 7900,SOUTH METROPOLITAN,Primary Schools,PRIMARY SCHOOLS,KIN,Y06,47,59,62,60,53,58,71,55,,,,,,,,,465
5099,CHIDLOW PRIMARY SCHOOL,450 LILYDALE ROAD,CHIDLOW,WA,6556,450 LILYDALE ROAD,CHIDLOW,WA,6556,-31.85729037,116.2689559,08 9573 7200,NORTH METROPOLITAN,Primary Schools,PRIMARY SCHOOLS,KIN,Y06,19,17,14,14,20,16,13,21,,,,,,,,,134
1455,CHILD SIDE SCHOOL,32 ARMSTRONG ROAD,BOYANUP,WA,6237,32 ARMSTRONG ROAD,BOYANUP,WA,6237,-33.48598843,115.7411328,08 9731 5232,SOUTH WEST,NON-GOVT SCHOOLS,NON-GOVERNMENT,KIN,Y10,9,4,7,10,4,8,7,4,,4,8,8,6,,,,79
1085,CHISHOLM CATHOLIC COLLEGE,1104 BEAUFORT STREET,BEDFORD,WA,6052,1104 BEAUFORT STREET,BEDFORD,WA,6052,-31.91151257,115.9005647,08 9208 2500,NORTH METROPOLITAN,NON-GOVT SCHOOLS,NON-GOVERNMENT,Y07,Y12,,,,,,,,,,294,305,293,298,274,265,,"1,729"
1041,CHRIST CHURCH GRAMMAR SCHOOL,QUEENSLEA DRIVE,CLAREMONT,WA,6010,QUEENSLEA DRIVE,CLAREMONT,WA,6010,-31.98546117,115.7769868,08 9442 1555,NORTH METROPOLITAN,NON-GOVT SCHOOLS,NON-GOVERNMENT,KIN,Y12,50,40,47,45,69,99,101,120,,203,203,197,201,204,201,,"1,780"
1104,CHRIST THE KING CATHOLIC SCHOOL,LOMBADINA,LOMBADINA,WA,6725,LOMBADINA,LOMBADINA,WA,6725,-16.516088,122.892963,08 9192 4934,KIMBERLEY,NON-GOVT SCHOOLS,NON-GOVERNMENT,KIN,Y10,2,10,10,7,5,7,8,6,,4,2,2,5,,,,68
1015,CHRIST THE KING SCHOOL,87 YORK STREET,BEACONSFIELD,WA,6162,87 YORK STREET,BEACONSFIELD,WA,6162,-32.072343,115.773117,08 9487 9900,SOUTH METROPOLITAN,NON-GOVT SCHOOLS,NON-GOVERNMENT,KIN,Y06,56,29,42,29,34,38,49,31,,,,,,,,,308
1284,CHRISTIAN ABORIGINAL PARENT-DIRECTED SCHOOL,85-93 LINDSAY STREET,COOLGARDIE,WA,6429,85-93 LINDSAY STREET,COOLGARDIE,WA,6429,-30.95228,121.16131,08 9093 8000,GOLDFIELDS,NON-GOVT SCHOOLS,NON-GOVERNMENT,KIN,Y12,3,4,2,1,2,1,2,5,,13,10,16,13,4,2,,78
1347,CHRISTIAN ABORIGINAL PARENT-DIRECTED SCHOOL - KURRAWANG,"KURRAWANG COMTY, 1 SHARPE DRIVE",MOUNT BURGES,WA,6429,"KURRAWANG COMTY, 1 SHARPE DRIVE",MOUNT BURGES,WA,6429,-30.83002,121.3301,08 9091 2590,GOLDFIELDS,NON-GOVT SCHOOLS,NON-GOVERNMENT,KIN,Y06,11,10,16,8,12,8,3,12,,,,,,,,,80
1063,CHRISTIAN BROTHERS' COLLEGE,51 ELLEN STREET,FREMANTLE,WA,6160,51 ELLEN STREET,FREMANTLE,WA,6160,-32.05178739,115.7533646,08 9336 2700,SOUTH METROPOLITAN,NON-GOVT SCHOOLS,NON-GOVERNMENT,Y07,Y12,,,,,,,,,,147,159,168,147,156,119,,896
4152,CHRISTMAS ISLAND DISTRICT HIGH SCHOOL,MURRAY ROAD,CHRISTMAS ISLAND,WA,6798,PO BOX 866,CHRISTMAS ISLAND,WA,6798,-10.4352,105.6686,08 9164 8546,NORTH METROPOLITAN,OFFSHORE & MIGRATORY,DISTRICT HIGH SCHOOLS,KIN,Y12,20,17,16,20,19,20,25,26,,15,20,14,17,12,16,,257
1372,CHRYSALIS MONTESSORI SCHOOL,3-5 PARKLAND ROAD,GLENDALOUGH,WA,6016,3-5 PARKLAND ROAD,GLENDALOUGH,WA,6016,-31.91748633,115.8172243,08 9444 6025,NORTH METROPOLITAN,NON-GOVT SCHOOLS,NON-GOVERNMENT,KIN,Y06,36,17,20,21,13,14,8,10,,,,,,,,,139
5102,CHURCHLANDS PRIMARY SCHOOL,CROMARTY ROAD,FLOREAT,WA,6014,CROMARTY ROAD,FLOREAT,WA,6014,-31.92636369,115.794652,08 9253 9450,NORTH METROPOLITAN,Primary Schools,PRIMARY SCHOOLS,KIN,Y06,41,36,69,63,65,56,68,68,,,,,,,,,466
4012,CHURCHLANDS SENIOR HIGH SCHOOL,20 LUCCA STREET,CHURCHLANDS,WA,6018,20 LUCCA STREET,CHURCHLANDS,WA,6018,-31.91728978,115.7899902,08 9441 1700,NORTH METROPOLITAN,Senior High Schools,SECONDARY SCHOOLS,Y07,Y12,,,,,,,,,,338,368,404,401,495,421,,"2,427"
5103,CITY BEACH PRIMARY SCHOOL,30 MARAPANA ROAD,CITY BEACH,WA,6015,30 MARAPANA ROAD,CITY BEACH,WA,6015,-31.93538508,115.765126,08 9237 7400,NORTH METROPOLITAN,Primary Schools,PRIMARY SCHOOLS,KIN,Y06,19,25,35,29,25,25,27,19,,,,,,,,,204
4160,CLARKSON COMMUNITY HIGH SCHOOL,16 WALYUNGA BOULEVARD,CLARKSON,WA,6030,16 WALYUNGA BOULEVARD,CLARKSON,WA,6030,-31.67744562,115.7267272,08 6206 5000,NORTH METROPOLITAN,Senior High Schools,SECONDARY SCHOOLS,Y07,Y12,,,,,,,,,,71,54,89,68,50,33,,365
5731,CLARKSON PRIMARY SCHOOL,8 ALDERSEA CIRCLE,CLARKSON,WA,6030,PO BOX 2032,CLARKSON,WA,6030,-31.67754494,115.7183074,08 6207 5200,NORTH METROPOLITAN,Primary Schools,PRIMARY SCHOOLS,KIN,Y06,20,41,34,36,40,40,34,40,,,,,,,,,285
5793,CLAYTON VIEW PRIMARY SCHOOL,211 CLAYTON STREET,KOONGAMIA,WA,6056,211 CLAYTON STREET,KOONGAMIA,WA,6056,-31.90467468,116.0402451,08 9257 0800,NORTH METROPOLITAN,Primary Schools,PRIMARY SCHOOLS,KIN,Y06,15,15,16,17,27,15,18,14,,,,,,,,,137
5550,CLIFTON HILLS PRIMARY SCHOOL,1 BUTLER PASS,KELMSCOTT,WA,6111,1 BUTLER PASS,KELMSCOTT,WA,6111,-32.1094773,116.0207568,08 9234 7800,SOUTH METROPOLITAN,Primary Schools,PRIMARY SCHOOLS,KIN,Y06,58,46,56,50,50,70,52,56,,,,,,,,,438
5692,CLIFTON PARK PRIMARY SCHOOL,LUCY VICTORIA AVENUE,CLIFTON PARK,WA,6233,LUCY VICTORIA AVENUE,CLIFTON PARK,WA,6233,-33.30905652,115.7119826,08 9796 7300,SOUTH WEST,Primary Schools,PRIMARY SCHOOLS,KIN,Y06,18,14,18,19,25,20,17,21,,,,,,,,,152
1045,CLONTARF ABORIGINAL COLLEGE,295 MANNING ROAD,WATERFORD,WA,6152,295 MANNING ROAD,WATERFORD,WA,6152,-32.01565323,115.8929678,08 9251 0666,SOUTH METROPOLITAN,NON-GOVT SCHOOLS,NON-GOVERNMENT,Y07,Y12,,,,,,,,,,20,16,28,43,35,38,,180
6064,CLOVERDALE EDUCATION SUPPORT CENTRE,180 FISHER STREET,CLOVERDALE,WA,6105,180 FISHER STREET,CLOVERDALE,WA,6105,-31.96091754,115.935021,08 9438 7850,SOUTH METROPOLITAN,Education Support Centres,EDUCATION SUPPORT,KIN,Y06,6,8,13,16,16,12,12,10,,,,,,,,,93
5169,CLOVERDALE PRIMARY SCHOOL,180 FISHER STREET,CLOVERDALE,WA,6105,180 FISHER STREET,CLOVERDALE,WA,6105,-31.96091754,115.935021,08 9438 7800,SOUTH METROPOLITAN,Primary Schools,PRIMARY SCHOOLS,KIN,Y06,44,42,30,52,39,50,44,42,,,,,,,,,343
4199,COASTAL LAKES COLLEGE,135 BADGERUP AVENUE,LAKELANDS,WA,6180,135 BADGERUP AVENUE,LAKELANDS,WA,6180,-32.468193,115.762737,08 9583 2800,SOUTH METROPOLITAN,Senior High Schools,SECONDARY SCHOOLS,Y07,Y12,,,,,,,,,,187,201,225,217,212,5,,"1,047"
4157,COCOS ISLANDS DISTRICT HIGH SCHOOL,LOT 169 AIRFORCE ROAD,COCOS ISLAND,WA,6799,PO BOX 1095,COCOS ISLAND,WA,6799,-12.188,96.8288,08 9162 6650,NORTH METROPOLITAN,OFFSHORE & MIGRATORY,DISTRICT HIGH SCHOOLS,KIN,Y10,13,13,8,10,17,13,10,8,,10,7,6,7,,,,122
6004,COLLEGE ROW SCHOOL,2 COLLEGE ROW,SOUTH BUNBURY,WA,6230,2 COLLEGE ROW,SOUTH BUNBURY,WA,6230,-33.35398848,115.6315097,08 9724 3050,SOUTH WEST,Education Support Schools,EDUCATION SUPPORT,PPR,Y12,,2,2,6,2,2,3,,,5,7,6,5,6,6,,52
4014,COLLIE SENIOR HIGH SCHOOL,WITTENOOM STREET,COLLIE,WA,6225,PO BOX 808,COLLIE,WA,6225,-33.36307,116.156535,08 9735 1200,SOUTH WEST,Senior High Schools,SECONDARY SCHOOLS,Y07,Y12,,,,,,,,,,95,104,94,98,95,61,,547
5109,COLLIER PRIMARY SCHOOL,17 HOBBS AVENUE,COMO,WA,6152,PO BOX 111,COMO,WA,6952,-31.99132283,115.8732078,08 6455 0300,SOUTH METROPOLITAN,Primary Schools,PRIMARY SCHOOLS,KIN,Y06,32,38,36,39,43,34,23,37,,,,,,,,,282
4176,COMET BAY COLLEGE,2 ALLATOONA AVENUE,SECRET HARBOUR,WA,6173,PO BOX 7134,SECRET HARBOUR,WA,6173,-32.4158052,115.7629996,08 9553 8100,SOUTH METROPOLITAN,Senior High Schools,SECONDARY SCHOOLS,Y07,Y12,,,,,,,,,,298,317,307,333,272,251,,"1,778"
5804,COMET BAY PRIMARY SCHOOL,85 MILTONA DRIVE,SECRET HARBOUR,WA,6173,85 MILTONA DRIVE,SECRET HARBOUR,WA,6173,-32.41132592,115.7694346,08 9523 3700,SOUTH METROPOLITAN,Primary Schools,PRIMARY SCHOOLS,KIN,Y06,60,80,81,75,96,92,120,115,,,,,,,,,719
1496,COMMUNICARE ACADEMY,11-13 ROYAL STREET,KENWICK,WA,6107,11-13 ROYAL STREET,KENWICK,WA,6107,-32.03746429,115.9676942,08 6350 1872,SOUTH METROPOLITAN,NON-GOVT SCHOOLS,NON-GOVERNMENT,Y07,Y12,,,,,,,,,,10,13,13,19,12,13,,80
5110,COMO PRIMARY SCHOOL,206 LABOUCHERE ROAD,COMO,WA,6152,206 LABOUCHERE ROAD,COMO,WA,6152,-31.99709826,115.8613447,08 6455 0350,SOUTH METROPOLITAN,Primary Schools,PRIMARY SCHOOLS,KIN,Y06,40,71,59,60,55,54,53,50,,,,,,,,,442
4049,COMO SECONDARY COLLEGE,20 BRUCE STREET,COMO,WA,6152,20 BRUCE STREET,COMO,WA,6152,-32.00366439,115.8711551,08 9365 2000,SOUTH METROPOLITAN,Senior High Schools,SECONDARY SCHOOLS,Y07,Y12,,,,,,,,,,126,138,144,146,140,124,,818
5111,CONDINGUP PRIMARY SCHOOL,SUTCLIFFE STREET,CONDINGUP,WA,6450,PMB 9,ESPERANCE,WA,6450,-33.75467811,122.5268561,08 6021 2900,GOLDFIELDS,Primary Schools,PRIMARY SCHOOLS,KIN,Y06,8,7,10,4,8,7,8,6,,,,,,,,,58
5717,CONNOLLY PRIMARY SCHOOL,FAIRWAY CIRCLE,CONNOLLY,WA,6027,FAIRWAY CIRCLE,CONNOLLY,WA,6027,-31.74715629,115.7572958,08 6206 3200,NORTH METROPOLITAN,Primary Schools,PRIMARY SCHOOLS,KIN,Y06,39,66,40,49,47,71,52,49,,,,,,,,,413
4148,COODANUP COLLEGE,WANJEEP STREET,MANDURAH,WA,6210,WANJEEP STREET,MANDURAH,WA,6210,-32.54610231,115.7489824,08 9581 0900,SOUTH METROPOLITAN,Senior High Schools,SECONDARY SCHOOLS,Y07,Y12,,,,,,,,,,143,134,159,137,134,93,,800
5112,COOGEE PRIMARY SCHOOL,22 MAYOR ROAD,COOGEE,WA,6166,22 MAYOR ROAD,COOGEE,WA,6166,-32.12709335,115.7718242,08 6595 4900 ,SOUTH METROPOLITAN,Primary Schools,PRIMARY SCHOOLS,KIN,Y06,56,84,79,81,90,78,54,71,,,,,,,,,593
5071,COOINDA PRIMARY SCHOOL,10 ALLEN STREET,EAST BUNBURY,WA,6230,PO BOX 2454,BUNBURY,WA,6231,-33.33437038,115.6519077,08 9724 3000,SOUTH WEST,Primary Schools,PRIMARY SCHOOLS,KIN,Y06,24,37,45,31,41,38,42,48,,,,,,,,,306
5791,COOLBELLUP COMMUNITY SCHOOL,15 WAVERLEY ROAD,COOLBELLUP,WA,6163,15 WAVERLEY ROAD,COOLBELLUP,WA,6163,-32.08185386,115.8088051,08 9487 9500,SOUTH METROPOLITAN,Primary Schools,PRIMARY SCHOOLS,KIN,Y06,25,20,19,17,19,29,29,28,,,,,,,,,186
6047,COOLBELLUP LEARNING CENTRE,15 WAVERLEY ROAD,COOLBELLUP,WA,6163,15 WAVERLEY ROAD,COOLBELLUP,WA,6163,-32.08185386,115.8088051,08 9487 9502,SOUTH METROPOLITAN,Education Support Centres,EDUCATION SUPPORT,KIN,Y06,2,5,7,7,12,6,4,7,,,,,,,,,50
5116,COOLBINIA PRIMARY SCHOOL,BRADFORD STREET,COOLBINIA,WA,6050,BRADFORD STREET,COOLBINIA,WA,6050,-31.91309496,115.8590308,08 9427 8450,NORTH METROPOLITAN,Primary Schools,PRIMARY SCHOOLS,KIN,Y06,36,42,39,53,46,60,56,49,,,,,,,,,381
5117,COOLGARDIE PRIMARY SCHOOL,46 SHAW STREET,COOLGARDIE,WA,6429,46 SHAW STREET,COOLGARDIE,WA,6429,-30.95018807,121.1671483,08 9068 3100,GOLDFIELDS,Primary Schools,PRIMARY SCHOOLS,KIN,Y06,5,4,5,2,4,3,3,10,,,,,,,,,36
5606,COOLOONGUP PRIMARY SCHOOL,21 WESTERLY WAY,COOLOONGUP,WA,6168,21 WESTERLY WAY,COOLOONGUP,WA,6168,-32.29797619,115.7552819,08 9591 6900,SOUTH METROPOLITAN,Primary Schools,PRIMARY SCHOOLS,KIN,Y06,30,47,34,49,46,42,51,49,,,,,,,,,348
5120,COOROW PRIMARY SCHOOL,14 BRISTOL STREET,COOROW,WA,6515,14 BRISTOL STREET,COOROW,WA,6515,-29.87940195,116.0234057,08 9952 2800,MIDWEST,Primary Schools,PRIMARY SCHOOLS,KIN,Y06,3,8,8,3,3,5,3,5,,,,,,,,,38
1329,CORNERSTONE CHRISTIAN COLLEGE,GRACE COURT,BUSSELTON,WA,6280,GRACE COURT,BUSSELTON,WA,6280,-33.67026207,115.3229807,08 6706 7100,SOUTH WEST,NON-GOVT SCHOOLS,NON-GOVERNMENT,KIN,Y12,25,18,22,34,24,34,32,30,,39,42,27,34,17,13,,391
1299,CORPUS CHRISTI COLLEGE,MURDOCH DRIVE,BATEMAN,WA,6150,MURDOCH DRIVE,BATEMAN,WA,6150,-32.05699614,115.8429056,08 6332 2500,SOUTH METROPOLITAN,NON-GOVT SCHOOLS,NON-GOVERNMENT,KIN,Y12,78,59,59,59,60,64,64,64,,235,233,197,234,212,206,,"1,824"
4068,CORRIGIN DISTRICT HIGH SCHOOL,53 LYNCH STREET,CORRIGIN,WA,6375,53 LYNCH STREET,CORRIGIN,WA,6375,-32.32675596,117.8771847,08 9063 4400,WHEATBELT,District High Schools,DISTRICT HIGH SCHOOLS,KIN,Y10,9,17,11,13,15,12,15,13,,6,2,2,10,,,,125
5123,COTTESLOE PRIMARY SCHOOL,530 STIRLING HIGHWAY,PEPPERMINT GROVE,WA,6011,530 STIRLING HIGHWAY,PEPPERMINT GROVE,WA,6011,-32.002516,115.761337,08 9382 7300,NORTH METROPOLITAN,Primary Schools,PRIMARY SCHOOLS,KIN,Y06,34,43,46,50,40,45,48,36,,,,,,,,,342
1465,COURT GRAMMAR SCHOOL,1 BISHOP ROAD,MUNDIJONG,WA,6123,1 BISHOP ROAD,MUNDIJONG,WA,6123,-32.26965841,115.9912806,08 9526 5000,SOUTH METROPOLITAN,NON-GOVT SCHOOLS,NON-GOVERNMENT,KIN,Y12,73,52,54,55,67,53,69,61,,106,84,79,69,59,54,,935
5125,COWARAMUP PRIMARY SCHOOL,24 WAVERLEY ROAD,COWARAMUP,WA,6284,PO BOX 380,COWARAMUP,WA,6284,-33.85180355,115.1071506,08 9756 5400,SOUTH WEST,Primary Schools,PRIMARY SCHOOLS,KIN,Y06,40,50,33,75,46,38,48,43,,,,,,,,,373
5816,CRAIGIE HEIGHTS PRIMARY SCHOOL,47 SPINAWAY STREET,CRAIGIE,WA,6025,47 SPINAWAY STREET,CRAIGIE,WA,6025,-31.79004304,115.7602644,08 6206 2200,NORTH METROPOLITAN,Primary Schools,PRIMARY SCHOOLS,KIN,Y06,40,47,60,48,50,47,43,47,,,,,,,,,382
5126,CRANBROOK PRIMARY SCHOOL,63 KING STREET,CRANBROOK,WA,6321,PO BOX 109,CRANBROOK,WA,6321,-34.29276525,117.5508016,08 9826 0000,SOUTH WEST,Primary Schools,PRIMARY SCHOOLS,KIN,Y06,6,6,10,6,5,7,11,7,,,,,,,,,58
6059,CREANEY EDUCATION SUPPORT CENTRE,50 KINGSLEY DRIVE,KINGSLEY,WA,6026,6 CREANEY DRIVE,KINGSLEY,WA,6026,-31.80400875,115.7885222,08 9408 2950,NORTH METROPOLITAN,Education Support Centres,EDUCATION SUPPORT,KIN,Y06,6,6,2,10,10,14,9,4,,,,,,,,,61
5667,CREANEY PRIMARY SCHOOL,6 CREANEY DRIVE,KINGSLEY,WA,6026,6 CREANEY DRIVE,KINGSLEY,WA,6026,-31.80400875,115.7885224,08 9408 2900,NORTH METROPOLITAN,Primary Schools,PRIMARY SCHOOLS,KIN,Y06,40,36,50,54,54,44,50,32,,,,,,,,,360
5127,CUE PRIMARY SCHOOL,SIMPSON STREET,CUE,WA,6640,PO BOX 58,CUE,WA,6640,-27.42017103,117.8970268,08 9963 0200,MIDWEST,Primary Schools,PRIMARY SCHOOLS,KIN,Y10,3,5,6,4,4,3,2,2,,3,2,1,3,,,,38
4069,CUNDERDIN DISTRICT HIGH SCHOOL,CUBBINE STREET,CUNDERDIN,WA,6407,CUBBINE STREET,CUNDERDIN,WA,6407,-31.65627,117.243877,08 9635 3300,WHEATBELT,District High Schools,DISTRICT HIGH SCHOOLS,KIN,Y10,14,12,13,16,15,15,15,20,,12,13,14,14,,,,173
5757,CURRAMBINE PRIMARY SCHOOL,28 AMBASSADOR DRIVE,CURRAMBINE,WA,6028,28 AMBASSADOR DRIVE,CURRAMBINE,WA,6028,-31.73364969,115.7491022,08 6207 6100,NORTH METROPOLITAN,Primary Schools,PRIMARY SCHOOLS,KIN,Y06,94,89,97,97,98,107,92,88,,,,,,,,,762
5257,CURTIN PRIMARY SCHOOL,20 GOSS AVENUE,MANNING,WA,6152,20 GOSS AVENUE,MANNING,WA,6152,-32.00690937,115.8737611,08 6455 8050,SOUTH METROPOLITAN,Primary Schools,PRIMARY SCHOOLS,KIN,Y06,16,26,23,27,9,12,21,15,,,,,,,,,149
4015,CYRIL JACKSON SENIOR CAMPUS,53 REID STREET,BASSENDEAN,WA,6054,PO BOX 108,BASSENDEAN,WA,6934,-31.91290966,115.9424646,08 9413 4700,NORTH METROPOLITAN,Senior Colleges,SECONDARY SCHOOLS,Y11,Y12,,,,,,,,,,,,,,303,88,,391
6048,CYRIL JACKSON SENIOR CAMPUS EDUCATION SUPPORT CENTRE,53 REID STREET,BASSENDEAN,WA,6054,PO BOX 108,BASSENDEAN,WA,6934,-31.91290966,115.9424646,08 9413 4850,NORTH METROPOLITAN,Education Support Centres,EDUCATION SUPPORT,Y10,Y12,,,,,,,,,,,,,5,12,25,,42
1306,DALE CHRISTIAN COLLEGE WA,150 FORREST ROAD,ARMADALE,WA,6112,150 FORREST ROAD,ARMADALE,WA,6112,-32.15932611,115.9987357,08 9497 1444,SOUTH METROPOLITAN,NON-GOVT SCHOOLS,NON-GOVERNMENT,KIN,Y12,35,53,31,52,53,39,56,40,,52,47,44,38,38,31,,609
5131,DALKEITH PRIMARY SCHOOL,44 CIRCE CIRCLE,DALKEITH,WA,6009,PO BOX 5402,DALKEITH,WA,6009,-31.99644115,115.797872,08 9287 7100,NORTH METROPOLITAN,Primary Schools,PRIMARY SCHOOLS,KIN,Y06,36,27,45,51,50,45,36,42,,,,,,,,,332
5703,DALMAIN PRIMARY SCHOOL,64 DALMAIN STREET,KINGSLEY,WA,6026,64 DALMAIN STREET,KINGSLEY,WA,6026,-31.81392422,115.7907121,08 6207 2200,NORTH METROPOLITAN,Primary Schools,PRIMARY SCHOOLS,KIN,Y06,31,40,29,48,30,30,28,34,,,,,,,,,270
4070,DALWALLINU DISTRICT HIGH SCHOOL,97 JOHNSTON STREET,DALWALLINU,WA,6609,97 JOHNSTON STREET,DALWALLINU,WA,6609,-30.2704732,116.6610879,08 6661 1500,WHEATBELT,District High Schools,DISTRICT HIGH SCHOOLS,KIN,Y12,15,24,20,22,11,20,22,18,,21,18,15,13,2,2,,223
4183,DALYELLUP COLLEGE,WAKE DRIVE,DALYELLUP,WA,6230,PO BOX 1096,BUNBURY,WA,6231,-33.40385496,115.6257673,08 9797 9200,SOUTH WEST,Senior High Schools,SECONDARY SCHOOLS,Y07,Y12,,,,,,,,,,101,115,98,125,100,80,,619
5779,DALYELLUP PRIMARY SCHOOL,14 HARTOG ROAD,DALYELLUP,WA,6230,PO BOX 679,BUNBURY,WA,6231,-33.39985687,115.6228338,08 9796 5600,SOUTH WEST,Primary Schools,PRIMARY SCHOOLS,KIN,Y06,35,48,45,67,52,64,48,61,,,,,,,,,420
5133,DAMPIER PRIMARY SCHOOL,42 CHURCH ROAD,DAMPIER,WA,6713,42 CHURCH ROAD,DAMPIER,WA,6713,-20.6644723,116.705717,08 9183 4300,PILBARA,Primary Schools,PRIMARY SCHOOLS,KIN,Y06,21,30,26,26,27,28,17,27,,,,,,,,,202
5135,DANDARAGAN PRIMARY SCHOOL,DANDARAGAN ROAD,DANDARAGAN,WA,6507,PO BOX 91,DANDARAGAN,WA,6507,-30.67304886,115.7019541,08 9688 9900,MIDWEST,Primary Schools,PRIMARY SCHOOLS,KIN,Y06,6,12,4,9,13,6,13,8,,,,,,,,,71
5136,DARDANUP PRIMARY SCHOOL,HAYWARD STREET,DARDANUP,WA,6236,HAYWARD STREET,DARDANUP,WA,6236,-33.40089693,115.7575813,08 9728 2060,SOUTH WEST,Primary Schools,PRIMARY SCHOOLS,KIN,Y06,21,28,26,33,13,22,20,21,,,,,,,,,184
5826,DARKAN PRIMARY SCHOOL,DARKAN SOUTH ROAD,DARKAN,WA,6392,DARKAN SOUTH ROAD,DARKAN,WA,6392,-33.33586626,116.7346573,08 6716 8900,WHEATBELT,Primary Schools,PRIMARY SCHOOLS,KIN,Y06,7,6,5,8,7,7,15,13,,,,,,,,,68
4116,DARLING RANGE SPORTS COLLEGE,117 BERKSHIRE ROAD,FORRESTFIELD,WA,6058,117 BERKSHIRE ROAD,FORRESTFIELD,WA,6058,-31.97566063,116.0108597,08 9453 0100,SOUTH METROPOLITAN,Senior High Schools,SECONDARY SCHOOLS,Y07,Y12,,,,,,,,,,232,208,218,215,140,148,,"1,161"
5138,DARLINGTON PRIMARY SCHOOL,2-14 AMHERST AVENUE,DARLINGTON,WA,6070,2-14 AMHERST AVENUE,DARLINGTON,WA,6070,-31.92015078,116.07754,08 9257 4000,NORTH METROPOLITAN,Primary Schools,PRIMARY SCHOOLS,KIN,Y06,47,45,42,36,57,46,38,45,,,,,,,,,356
5566,DAVALLIA PRIMARY SCHOOL,6 JUNIPER WAY,DUNCRAIG,WA,6023,6 JUNIPER WAY,DUNCRAIG,WA,6023,-31.84104283,115.7874618,08 9246 8750,NORTH METROPOLITAN,Primary Schools,PRIMARY SCHOOLS,KIN,Y06,60,69,61,85,67,78,82,57,,,,,,,,,559
5653,DAWSON PARK PRIMARY SCHOOL,120 BOUGAINVILLEA AVENUE,FORRESTFIELD,WA,6058,120 BOUGAINVILLEA AVENUE,FORRESTFIELD,WA,6058,-31.97788644,115.9999814,08 9483 2000,SOUTH METROPOLITAN,Primary Schools,PRIMARY SCHOOLS,KIN,Y06,61,57,54,73,56,66,63,60,,,,,,,,,490
5691,DAWUL REMOTE COMMUNITY SCHOOL,DOON DOON STATION,KUNUNURRA,WA,6743,PO BOX 1881,KUNUNURRA,WA,6743,-16.306425,128.2465,08 9167 0000,KIMBERLEY,Remote Community Schools,PRIMARY SCHOOLS,KIN,Y06,2,1,2,3,,1,2,3,,,,,,,,,14
5874,DAYTON PRIMARY SCHOOL,290 ARTHUR STREET,DAYTON,WA,6055,290 ARTHUR STREET,DAYTON,WA,6055,-31.850991,115.975449,08 9461 2750,NORTH METROPOLITAN,Primary Schools,PRIMARY SCHOOLS,KIN,Y06,42,47,24,28,21,21,12,8,,,,,,,,,203
5414,DEANMORE PRIMARY SCHOOL,21 DEANMORE ROAD,KARRINYUP,WA,6018,21 DEANMORE ROAD,KARRINYUP,WA,6018,-31.88323747,115.7666076,08 9222 9250,NORTH METROPOLITAN,Primary Schools,PRIMARY SCHOOLS,KIN,Y06,70,53,61,66,73,72,59,53,,,,,,,,,507
5767,DENMARK PRIMARY SCHOOL,MITCHELL STREET,DENMARK,WA,6333,MITCHELL STREET,DENMARK,WA,6333,-34.96364766,117.3534296,08 9848 4700,SOUTH WEST,Primary Schools,PRIMARY SCHOOLS,KIN,Y06,51,49,59,61,47,53,76,58,,,,,,,,,454
4072,DENMARK SENIOR HIGH SCHOOL,956 SOUTH COAST HIGHWAY,DENMARK,WA,6333,956 SOUTH COAST HIGHWAY,DENMARK,WA,6333,-34.95741408,117.3645842,08 9848 0100,SOUTH WEST,Senior High Schools,SECONDARY SCHOOLS,Y07,Y12,,,,,,,,,,95,87,76,74,52,65,,449
4073,DERBY DISTRICT HIGH SCHOOL,10 ANDERSON STREET,DERBY,WA,6728,PMB 958,DERBY,WA,6728,-17.30943881,123.633739,08 9193 3000,KIMBERLEY,District High Schools,DISTRICT HIGH SCHOOLS,KIN,Y12,37,44,58,47,33,45,61,43,,56,53,48,46,40,36,,647
5144,DIANELLA HEIGHTS PRIMARY SCHOOL,9 BEAMAN STREET,DIANELLA,WA,6059,9 BEAMAN STREET,DIANELLA,WA,6059,-31.88273396,115.8661514,08 9218 1450,NORTH METROPOLITAN,Primary Schools,PRIMARY SCHOOLS,KIN,Y06,58,54,57,51,77,60,50,63,,,,,,,,,470
5309,DIANELLA PRIMARY COLLEGE,LAYTHORNE STREET,DIANELLA,WA,6059,LAYTHORNE STREET,DIANELLA,WA,6059,-31.87939428,115.8548645,08 9263 5100,NORTH METROPOLITAN,Primary Schools,PRIMARY SCHOOLS,KIN,Y06,40,40,57,51,46,50,49,56,,,,,,,,,389
4036,DIANELLA SECONDARY COLLEGE,180 NOLLAMARA AVENUE,DIANELLA,WA,6059,180 NOLLAMARA AVENUE,DIANELLA,WA,6059,-31.87818209,115.8549027,08 9345 9200,NORTH METROPOLITAN,Senior High Schools,SECONDARY SCHOOLS,Y07,Y12,,,,,,,,,,91,93,98,94,95,86,,557
6068,DIANELLA SECONDARY COLLEGE EDUCATION SUPPORT CENTRE,9 LAYTHORNE STREET,DIANELLA,WA,6059,9 LAYTHORNE STREET,DIANELLA,WA,6059,-31.879454,115.853534,08 9345 9272,NORTH METROPOLITAN,Education Support Centres,EDUCATION SUPPORT,Y07,Y12,,,,,,,,,,22,22,16,14,17,22,,113
1405,DIVINE MERCY COLLEGE,326 YANGEBUP ROAD,YANGEBUP,WA,6164,326 YANGEBUP ROAD,YANGEBUP,WA,6164,-32.12468637,115.8251697,08 9417 3267,SOUTH METROPOLITAN,NON-GOVT SCHOOLS,NON-GOVERNMENT,KIN,Y12,12,15,20,24,19,20,24,23,,31,27,31,33,29,28,,336
5760,DJIDI DJIDI ABORIGINAL SCHOOL,ERICA ENTRANCE,BUNBURY,WA,6230,ERICA ENTRANCE,BUNBURY,WA,6230,-33.3480231,115.6823564,08 9724 9444,SOUTH WEST,Primary Schools,PRIMARY SCHOOLS,KIN,Y06,6,9,14,10,12,9,15,8,,,,,,,,,83
5098,DJUGERARI REMOTE COMMUNITY SCHOOL,FOURTH STREET,DJUGERARI COMMUNITY,WA,6765,PO BOX 112,FITZROY CROSSING,WA,6765,-18.988706,125.510396,08 9981 4460,KIMBERLEY,Remote Community Schools,PRIMARY SCHOOLS,PPR,Y07,,2,1,2,2,3,,1,,1,,,,,,,12
4131,DONGARA DISTRICT HIGH SCHOOL,13 CAVE WAY,DONGARA,WA,6525,13 CAVE WAY,DONGARA,WA,6525,-29.24926582,114.9285663,08 9927 7200,MIDWEST,District High Schools,DISTRICT HIGH SCHOOLS,KIN,Y12,20,24,27,31,30,28,35,39,,18,27,27,26,12,10,,354
4074,DONNYBROOK DISTRICT HIGH SCHOOL,10 BENTLEY STREET,DONNYBROOK,WA,6239,10 BENTLEY STREET,DONNYBROOK,WA,6239,-33.57479874,115.8209925,08 9732 4300,SOUTH WEST,District High Schools,DISTRICT HIGH SCHOOLS,KIN,Y10,37,51,27,50,33,46,36,59,,26,29,25,33,,,,452
5150,DOUBLEVIEW PRIMARY SCHOOL,273 FLAMBOROUGH STREET,DOUBLEVIEW,WA,6018,273 FLAMBOROUGH STREET,DOUBLEVIEW,WA,6018,-31.89845085,115.7776617,08 9392 7400,NORTH METROPOLITAN,Primary Schools,PRIMARY SCHOOLS,KIN,Y06,61,56,60,66,64,53,58,61,,,,,,,,,479
4075,DOWERIN DISTRICT HIGH SCHOOL,35 MEMORIAL AVENUE,DOWERIN,WA,6461,35 MEMORIAL AVENUE,DOWERIN,WA,6461,-31.19174,117.037882,08 9631 4400,WHEATBELT,District High Schools,DISTRICT HIGH SCHOOLS,KIN,Y11,9,13,13,15,10,12,14,13,,11,13,10,10,1,,,144
5694,DRYANDRA PRIMARY SCHOOL,45 DRYANDRA DRIVE,MIRRABOOKA,WA,6061,45 DRYANDRA DRIVE,MIRRABOOKA,WA,6061,-31.85529627,115.8623522,08 9345 6400,NORTH METROPOLITAN,Primary Schools,PRIMARY SCHOOLS,KIN,Y06,21,33,31,28,23,37,28,29,,,,,,,,,230
5587,DUDLEY PARK PRIMARY SCHOOL,GILLARK STREET,MANDURAH,WA,6210,PO BOX 915,MANDURAH,WA,6210,-32.54121027,115.735351,08 9586 0650,SOUTH METROPOLITAN,Primary Schools,PRIMARY SCHOOLS,KIN,Y06,40,37,49,51,57,44,48,51,,,,,,,,,377
5773,DUMBLEYUNG PRIMARY SCHOOL,49 TAYLOR STREET,DUMBLEYUNG,WA,6350,49 TAYLOR STREET,DUMBLEYUNG,WA,6350,-33.31275734,117.7386752,08 9863 2500,WHEATBELT,Primary Schools,PRIMARY SCHOOLS,KIN,Y06,5,7,8,5,6,5,4,5,,,,,,,,,45
5575,DUNCRAIG PRIMARY SCHOOL,21 ROCHE ROAD,DUNCRAIG,WA,6023,21 ROCHE ROAD,DUNCRAIG,WA,6023,-31.83197629,115.7707544,08 6224 2150,NORTH METROPOLITAN,Primary Schools,PRIMARY SCHOOLS,KIN,Y06,59,49,58,60,62,54,61,46,,,,,,,,,449
4129,DUNCRAIG SENIOR HIGH SCHOOL,22 SULLIVAN ROAD,DUNCRAIG,WA,6023,22 SULLIVAN ROAD,DUNCRAIG,WA,6023,-31.82190527,115.767131,08 6241 5400,NORTH METROPOLITAN,Senior High Schools,SECONDARY SCHOOLS,Y07,Y12,,,,,,,,,,316,340,336,308,297,215,,"1,812"
5155,DUNSBOROUGH PRIMARY SCHOOL,40 TURNER STREET,DUNSBOROUGH,WA,6281,TURNER STREET,DUNSBOROUGH,WA,6281,-33.60060793,115.0997912,08 9781 3777,SOUTH WEST,Primary Schools,PRIMARY SCHOOLS,KIN,Y06,89,80,75,97,85,103,95,94,,,,,,,,,718
6029,DURHAM ROAD SCHOOL,37 DURHAM ROAD,BAYSWATER,WA,6053,37 DURHAM ROAD,BAYSWATER,WA,6053,-31.91510281,115.918598,08 9238 0900,NORTH METROPOLITAN,Education Support Schools,EDUCATION SUPPORT,KIN,Y12,10,19,32,21,19,26,12,15,,17,10,16,20,15,5,,237
5157,DWELLINGUP PRIMARY SCHOOL,10 NEWTON STREET,DWELLINGUP,WA,6213,10 NEWTON STREET,DWELLINGUP,WA,6213,-32.71529394,116.0641876,08 9538 5100,SOUTH METROPOLITAN,Primary Schools,PRIMARY SCHOOLS,KIN,Y06,4,7,6,6,9,3,6,7,,,,,,,,,48
5626,EAST BEECHBORO PRIMARY SCHOOL,BROCKMILL AVENUE,BEECHBORO,WA,6063,BROCKMILL AVENUE,BEECHBORO,WA,6063,-31.87236969,115.9508182,08 6216 1900,NORTH METROPOLITAN,Primary Schools,PRIMARY SCHOOLS,KIN,Y06,33,43,46,59,53,56,51,57,,,,,,,,,398
5801,EAST BUTLER PRIMARY SCHOOL,7 AMERSHAM CRESCENT,BUTLER,WA,6036,7 AMERSHAM CRESCENT,BUTLER,WA,6036,-31.6437585,115.7117596,08 9561 7777,NORTH METROPOLITAN,Primary Schools,PRIMARY SCHOOLS,KIN,Y06,31,39,40,39,43,46,43,47,,,,,,,,,328
5177,EAST FREMANTLE PRIMARY SCHOOL,8 FORREST STREET,FREMANTLE,WA,6160,8 FORREST STREET,FREMANTLE,WA,6160,-32.04789275,115.7591484,08 9432 1200,SOUTH METROPOLITAN,Primary Schools,PRIMARY SCHOOLS,KIN,Y06,40,53,52,50,65,52,76,58,,,,,,,,,446
5627,EAST HAMERSLEY PRIMARY SCHOOL,20 DOON WAY,HAMERSLEY,WA,6022,20 DOON WAY,HAMERSLEY,WA,6022,-31.84763444,115.8186051,08 9462 9550,NORTH METROPOLITAN,Primary Schools,PRIMARY SCHOOLS,KIN,Y06,34,40,37,28,43,35,28,24,,,,,,,,,269
5201,EAST HAMILTON HILL PRIMARY SCHOOL,27 BRADBURY ROAD,HAMILTON HILL,WA,6163,27 BRADBURY ROAD,HAMILTON HILL,WA,6163,-32.07753718,115.7892828,08 9487 9300,SOUTH METROPOLITAN,Primary Schools,PRIMARY SCHOOLS,KIN,Y06,40,28,27,21,27,39,30,22,,,,,,,,,234
5232,EAST KALGOORLIE PRIMARY SCHOOL,4 MAFEKING STREET,KALGOORLIE,WA,6430,PO BOX 10501,KALGOORLIE PO,WA,6433,-30.74742189,121.4854297,08 9068 2400,GOLDFIELDS,Primary Schools,PRIMARY SCHOOLS,KIN,Y06,20,26,24,19,23,14,11,16,,,,,,,,,153
5634,EAST KENWICK PRIMARY SCHOOL,96 KENWICK ROAD,KENWICK,WA,6107,96 KENWICK ROAD,KENWICK,WA,6107,-32.03172749,115.9796025,08 6216 4150,SOUTH METROPOLITAN,Primary Schools,PRIMARY SCHOOLS,KIN,Y06,39,50,55,43,68,36,56,32,,,,,,,,,379
4123,EAST KIMBERLEY COLLEGE,MANGALOO STREET,KUNUNURRA,WA,6743,PO BOX 617,KUNUNURRA,WA,6743,-15.76888254,128.7361825,08 9168 4400,KIMBERLEY,K-12 SCHOOLS,K-12 SCHOOLS,KIN,Y12,58,79,66,75,70,83,75,63,,84,78,70,60,38,30,,929
5571,EAST MADDINGTON PRIMARY SCHOOL,79 PITCHFORD AVENUE,MADDINGTON,WA,6109,79 PITCHFORD AVENUE,MADDINGTON,WA,6109,-32.05542616,116.0041234,08 9217 8650,SOUTH METROPOLITAN,Primary Schools,PRIMARY SCHOOLS,KIN,Y06,39,57,42,50,56,63,51,66,,,,,,,,,424
5537,EAST MANJIMUP PRIMARY SCHOOL,CNR YOUNG/OCONNOR STREETS,MANJIMUP,WA,6258,O'CONNOR STREET,MANJIMUP,WA,6258,-34.24502646,116.151728,08 9771 9200,SOUTH WEST,Primary Schools,PRIMARY SCHOOLS,KIN,Y06,30,31,32,27,31,30,39,37,,,,,,,,,257
5342,EAST NARROGIN PRIMARY SCHOOL,HOMER STREET,NARROGIN,WA,6312,HOMER STREET,NARROGIN,WA,6312,-32.93547426,117.1883722,08 9882 1600,WHEATBELT,Primary Schools,PRIMARY SCHOOLS,KIN,Y06,6,12,13,16,9,14,15,25,,,,,,,,,110
6065,EAST VICTORIA PARK EDUCATION SUPPORT CENTRE,30 BEATTY AVENUE,EAST VICTORIA PARK,WA,6101,30 BEATTY AVENUE,EAST VICTORIA PARK,WA,6101,-31.97884722,115.9080897,08 6228 0750,SOUTH METROPOLITAN,Education Support Centres,EDUCATION SUPPORT,KIN,Y06,6,5,7,8,6,7,4,4,,,,,,,,,47
5445,EAST VICTORIA PARK PRIMARY SCHOOL,30 BEATTY AVENUE,EAST VICTORIA PARK,WA,6101,30 BEATTY AVENUE,EAST VICTORIA PARK,WA,6101,-31.97884722,115.9080897,08 6228 0700,SOUTH METROPOLITAN,Primary Schools,PRIMARY SCHOOLS,KIN,Y06,36,52,50,54,51,59,45,42,,,,,,,,,389
5681,EAST WAIKIKI PRIMARY SCHOOL,21 GIBB ROAD,COOLOONGUP,WA,6168,21 GIBB ROAD,COOLOONGUP,WA,6168,-32.3040885,115.7605364,08 9591 6600,SOUTH METROPOLITAN,Primary Schools,PRIMARY SCHOOLS,KIN,Y06,40,40,29,41,45,50,51,53,,,,,,,,,349
5577,EAST WANNEROO PRIMARY SCHOOL,32 HIGH ROAD,WANNEROO,WA,6065,32 HIGH ROAD,WANNEROO,WA,6065,-31.7568505,115.8168149,08 6207 3600,NORTH METROPOLITAN,Primary Schools,PRIMARY SCHOOLS,KIN,Y06,39,37,43,42,44,40,50,41,,,,,,,,,336
4182,EASTERN GOLDFIELDS COLLEGE,70 CASSIDY STREET,KALGOORLIE,WA,6430,LOCKED BAG 33,KALGOORLIE PO,WA,6433,-30.75101639,121.4753746,08 9092 3100,GOLDFIELDS,Senior Colleges,SECONDARY SCHOOLS,Y11,Y12,,,,,,,,,,,,,,252,163,,415
6078,EASTERN GOLDFIELDS EDUCATION SUPPORT CENTRE,BOOMERANG CRESCENT,KALGOORLIE,WA,6430,PMB 9,KALGOORLIE,WA,6433,-30.76705062,121.4788763,08 9092 0000,GOLDFIELDS,Education Support Centres,EDUCATION SUPPORT,Y07,Y12,,,,,,,,,,6,4,13,14,9,6,,52
8365,EASTERN HILLS COMMUNITY KINDERGARTEN AND PLAYGROUP,20B CHIDLOW STREET,MOUNT HELENA,WA,6082,PO BOX 105,MOUNT HELENA,WA,6082,-31.8749,116.216,08 9572 1875,NORTH METROPOLITAN,Community Kindergartens,COMMUNITY KINDERGARTENS,KIN,KIN,6,,,,,,,,,,,,,,,,6
4017,EASTERN HILLS SENIOR HIGH SCHOOL,LOT 289 KEANE STREET EAST,MOUNT HELENA,WA,6082,LOT 289 KEANE STREET EAST,MOUNT HELENA,WA,6082,-31.87396818,116.2200892,08 9573 0300,NORTH METROPOLITAN,Senior High Schools,SECONDARY SCHOOLS,Y07,Y12,,,,,,,,,,143,141,153,167,155,130,,889
4161,EATON COMMUNITY COLLEGE,20 RECREATION DRIVE,EATON,WA,6232,20 RECREATION DRIVE,EATON,WA,6232,-33.3176055,115.7228908,08 9796 7000,SOUTH WEST,Senior High Schools,SECONDARY SCHOOLS,Y07,Y12,,,,,,,,,,90,92,111,113,74,48,,528
5158,EATON PRIMARY SCHOOL,35 DIADEM STREET,EATON,WA,6232,PO BOX 345,BUNBURY,WA,6231,-33.32181891,115.7028431,08 9796 2600,SOUTH WEST,Primary Schools,PRIMARY SCHOOLS,KIN,Y06,48,61,48,52,57,45,59,44,,,,,,,,,414
5677,EDDYSTONE PRIMARY SCHOOL,LITTORINA AVENUE,HEATHRIDGE,WA,6027,LITTORINA AVENUE,HEATHRIDGE,WA,6027,-31.76706411,115.7690002,08 9406 5100,NORTH METROPOLITAN,Primary Schools,PRIMARY SCHOOLS,KIN,Y06,35,28,36,43,35,34,29,31,,,,,,,,,271
5159,EDEN HILL PRIMARY SCHOOL,83A IVANHOE STREET,EDEN HILL,WA,6054,83A IVANHOE STREET,EDEN HILL,WA,6054,-31.89291076,115.9456049,08 6455 0800,NORTH METROPOLITAN,Primary Schools,PRIMARY SCHOOLS,KIN,Y06,40,58,52,55,55,71,57,47,,,,,,,,,435
5657,EDGEWATER PRIMARY SCHOOL,76 TREETOP AVENUE,EDGEWATER,WA,6027,76 TREETOP AVENUE,EDGEWATER,WA,6027,-31.76289339,115.7804131,08 6207 3200,NORTH METROPOLITAN,Primary Schools,PRIMARY SCHOOLS,KIN,Y06,44,63,47,61,60,37,53,60,,,,,,,,,425
1021,EDMUND RICE COLLEGE,3398 BINDOON DEWARS POOL ROAD,BINDOON,WA,6502,3398 BINDOON DEWARS POOL ROAD,BINDOON,WA,6502,-31.31077578,116.1856818,08 9576 5500,NORTH METROPOLITAN,NON-GOVT SCHOOLS,NON-GOVERNMENT,Y07,Y12,,,,,,,,,,7,11,23,20,13,16,,90
5699,EDNEY PRIMARY SCHOOL,204 NEWBURN ROAD,HIGH WYCOMBE,WA,6057,204 NEWBURN ROAD,HIGH WYCOMBE,WA,6057,-31.94734619,116.0069048,08 6216 4700,SOUTH METROPOLITAN,Primary Schools,PRIMARY SCHOOLS,KIN,Y06,37,52,58,51,56,57,50,53,,,,,,,,,414
5805,ELLEN STIRLING PRIMARY SCHOOL,23 STRATHMORE PARKWAY,ELLENBROOK,WA,6069,23 STRATHMORE PARKWAY,ELLENBROOK,WA,6069,-31.7702501,115.9750095,08 6497 4200,NORTH METROPOLITAN,Primary Schools,PRIMARY SCHOOLS,KIN,Y06,60,71,65,93,80,84,87,108,,,,,,,,,648
1424,ELLENBROOK CHRISTIAN COLLEGE,5 SANTONA BOULEVARD,ELLENBROOK,WA,6069,5 SANTONA BOULEVARD,ELLENBROOK,WA,6069,-31.786783,115.959178,08 9297 9297,NORTH METROPOLITAN,NON-GOVT SCHOOLS,NON-GOVERNMENT,KIN,Y12,61,45,53,37,39,40,27,48,,64,65,50,53,49,36,,667
5745,ELLENBROOK PRIMARY SCHOOL,65 FORTESCUE PLACE,ELLENBROOK,WA,6069,LOCKED BAG 3 ELLENBROOK PO,ELLENBROOK,WA,6069,-31.7926892,115.9747992,08 9297 7300,NORTH METROPOLITAN,Primary Schools,PRIMARY SCHOOLS,KIN,Y06,43,39,46,49,50,62,62,51,,,,,,,,,402
4177,ELLENBROOK SECONDARY COLLEGE,100 MAIN STREET,ELLENBROOK,WA,6069,100 MAIN STREET,ELLENBROOK,WA,6069,-31.78554916,115.9642807,08 9297 9700,NORTH METROPOLITAN,Senior High Schools,SECONDARY SCHOOLS,Y07,Y12,,,,,,,,,,235,254,236,218,180,154,,"1,277"
5161,EMBLETON PRIMARY SCHOOL,51 PRIESTLEY STREET,EMBLETON,WA,6062,51 PRIESTLEY STREET,EMBLETON,WA,6062,-31.90187965,115.909802,08 9338 9700,NORTH METROPOLITAN,Primary Schools,PRIMARY SCHOOLS,KIN,Y06,16,34,30,23,19,22,25,22,,,,,,,,,191
1432,EMMANUEL CATHOLIC COLLEGE,122 HAMMOND ROAD,SUCCESS,WA,6164,122 HAMMOND ROAD,SUCCESS,WA,6164,-32.12857818,115.8400696,08 9414 4000,SOUTH METROPOLITAN,NON-GOVT SCHOOLS,NON-GOVERNMENT,Y07,Y12,,,,,,,,,,216,227,214,189,177,156,,"1,179"
1288,EMMANUEL CHRISTIAN COMMUNITY SCHOOL,3 SALCOTT ROAD,GIRRAWHEEN,WA,6064,3 SALCOTT ROAD,GIRRAWHEEN,WA,6064,-31.84620429,115.8482622,08 9342 7377,NORTH METROPOLITAN,NON-GOVT SCHOOLS,NON-GOVERNMENT,KIN,Y12,50,51,55,46,60,50,59,61,,59,60,53,47,35,32,,718
1550,EMMAUS CATHOLIC PRIMARY SCHOOL,359 ARTHUR STREET,DAYTON,WA,6055,359 ARTHUR STREET,DAYTON,WA,6055,-31.84721343,115.9721543,08 9232 5000,NORTH METROPOLITAN,NON-GOVT SCHOOLS,NON-GOVERNMENT,,,,,,,,,,,,,,,,,,,
6152,ENDEAVOUR EDUCATION SUPPORT CENTRE,38 ENDEAVOUR DRIVE,PORT KENNEDY,WA,6172,38 ENDEAVOUR DRIVE,PORT KENNEDY,WA,6172,-32.37037017,115.7507254,08 9591 6100,SOUTH METROPOLITAN,Education Support Centres,EDUCATION SUPPORT,KIN,Y06,3,2,7,6,9,7,2,5,,,,,,,,,41
5750,ENDEAVOUR PRIMARY SCHOOL,38 ENDEAVOUR DRIVE,PORT KENNEDY,WA,6172,38 ENDEAVOUR DRIVE,PORT KENNEDY,WA,6172,-32.37037017,115.7507254,08 9591 6100,SOUTH METROPOLITAN,Primary Schools,PRIMARY SCHOOLS,KIN,Y06,42,56,50,57,52,46,51,39,,,,,,,,,393
5162,ENEABBA PRIMARY SCHOOL,DEWAR STREET,ENEABBA,WA,6518,"PO BOX 107, DEWAR STREET",ENEABBA,WA,6518,-29.82022038,115.2681635,08 9933 3200,MIDWEST,Primary Schools,PRIMARY SCHOOLS,KIN,Y06,2,5,,,1,2,1,2,,,,,,,,,13
1481,ESPERANCE ANGLICAN COMMUNITY SCHOOL,5 GRIFFIN STREET,ESPERANCE,WA,6450,5 GRIFFIN STREET,ESPERANCE,WA,6450,-33.87140172,121.8844588,08 9083 2444,GOLDFIELDS,NON-GOVT SCHOOLS,NON-GOVERNMENT,Y07,Y12,,,,,,,,,,37,56,44,33,18,21,,209
1266,ESPERANCE CHRISTIAN SCHOOL,2 BLAKE STREET,ESPERANCE,WA,6450,2 BLAKE STREET,ESPERANCE,WA,6450,-33.86426103,121.8773873,08 9071 2703,GOLDFIELDS,NON-GOVT SCHOOLS,NON-GOVERNMENT,KIN,Y06,4,7,9,4,7,3,9,5,,,,,,,,,48
6098,ESPERANCE EDUCATION SUPPORT CENTRE,PINK LAKE ROAD,ESPERANCE,WA,6450,PO BOX 696,ESPERANCE,WA,6450,-33.86017872,121.868258,08 9071 9560,GOLDFIELDS,Education Support Centres,EDUCATION SUPPORT,Y07,Y12,,,,,,,,,,1,2,3,5,4,2,,17
5163,ESPERANCE PRIMARY SCHOOL,103 WINDICH STREET,ESPERANCE,WA,6450,PO BOX 150,ESPERANCE,WA,6450,-33.85981206,121.890272,08 9076 3600,GOLDFIELDS,Primary Schools,PRIMARY SCHOOLS,KIN,Y06,58,49,48,57,69,62,64,65,,,,,,,,,472
4018,ESPERANCE SENIOR HIGH SCHOOL,PINK LAKE ROAD,ESPERANCE,WA,6450,PO BOX 465,ESPERANCE,WA,6450,-33.86017872,121.868258,08 9071 9555,GOLDFIELDS,Senior High Schools,SECONDARY SCHOOLS,Y07,Y12,,,,,,,,,,140,150,128,164,166,108,,856
1527,ETON FARM PRIMARY SCHOOL,145 SUMMERFIELD ROAD,SERPENTINE,WA,6125,145 SUMMERFIELD ROAD,SERPENTINE,WA,6125,-32.346434,115.982615,08 9503 2996,SOUTH METROPOLITAN,NON-GOVT SCHOOLS,NON-GOVERNMENT,KIN,Y04,17,14,4,5,6,2,,,,,,,,,,,48
5790,EXCELSIOR PRIMARY SCHOOL,63 SHREEVE ROAD,CANNING VALE,WA,6155,63 SHREEVE ROAD,CANNING VALE,WA,6155,-32.08181283,115.943661,08 6258 9300,SOUTH METROPOLITAN,Primary Schools,PRIMARY SCHOOLS,KIN,Y06,38,49,51,41,42,52,61,62,,,,,,,,,396
4077,EXMOUTH DISTRICT HIGH SCHOOL,CARPENTER STREET,EXMOUTH,WA,6707,PO BOX 105,EXMOUTH,WA,6707,-21.93316002,114.1242962,08 9947 8888,MIDWEST,District High Schools,DISTRICT HIGH SCHOOLS,KIN,Y12,29,38,42,44,42,45,37,45,,40,33,24,29,22,15,,485
1518,FAIRBRIDGE COLLEGE,"FAIRBRIDGE VILLAGE, SOUTH WEST HIGHWAY",PINJARRA,WA,6208,"FAIRBRIDGE VILLAGE, SOUTH WEST HIGHWAY",PINJARRA,WA,6208,-32.60549898,115.9465216,08 9531 7932,SOUTH METROPOLITAN,NON-GOVT SCHOOLS,NON-GOVERNMENT,Y07,Y12,,,,,,,,,,9,20,28,27,30,28,,142
5167,FAIRVIEW PRIMARY SCHOOL,VERNON STREET,COLLIE,WA,6225,PO BOX 364,COLLIE,WA,6225,-33.34837356,116.1685678,08 9735 2300,SOUTH WEST,Primary Schools,PRIMARY SCHOOLS,KIN,Y06,14,23,27,24,23,27,24,26,,,,,,,,,188
5706,FALCON PRIMARY SCHOOL,30 BALOO CRESCENT,WANNANUP,WA,6210,PO BOX 5018,FALCON,WA,6210,-32.59274022,115.6429808,08 9584 7100,SOUTH METROPOLITAN,Primary Schools,PRIMARY SCHOOLS,KIN,Y06,73,56,71,73,69,73,54,60,,,,,,,,,529
5622,FALLS ROAD PRIMARY SCHOOL,50 FALLS ROAD,LESMURDIE,WA,6076,50 FALLS ROAD,LESMURDIE,WA,6076,-31.99216242,116.0470185,08 9291 2150,SOUTH METROPOLITAN,Primary Schools,PRIMARY SCHOOLS,KIN,Y06,38,27,40,37,42,38,45,52,,,,,,,,,319
4149,FITZROY VALLEY DISTRICT HIGH SCHOOL,FLYNN DRIVE,FITZROY CROSSING,WA,6765,PO BOX 106,FITZROY CROSSING,WA,6765,-18.196468,125.566842,08 9163 8600,KIMBERLEY,District High Schools,DISTRICT HIGH SCHOOLS,KIN,Y12,12,10,17,16,18,17,18,12,,12,23,19,24,39,31,,268
5607,FLINDERS PARK PRIMARY SCHOOL,51 YATANA ROAD,ALBANY,WA,6330,51 YATANA ROAD,ALBANY,WA,6330,-34.97824017,117.9300686,08 9892 5200,SOUTH WEST,Primary Schools,PRIMARY SCHOOLS,KIN,Y06,20,40,46,48,61,57,60,51,,,,,,,,,383
5173,FLOREAT PARK PRIMARY SCHOOL,38 CHANDLER AVENUE WEST,FLOREAT,WA,6014,38 CHANDLER AVENUE,FLOREAT,WA,6014,-31.936844,115.79122,08 9205 5600,NORTH METROPOLITAN,Primary Schools,PRIMARY SCHOOLS,KIN,Y06,48,64,82,82,79,74,88,59,,,,,,,,,576
5688,FOREST CRESCENT PRIMARY SCHOOL,83 FOREST CRESCENT,THORNLIE,WA,6108,83 FOREST CRESCENT,THORNLIE,WA,6108,-32.07607019,115.950007,08 9232 3550,SOUTH METROPOLITAN,Primary Schools,PRIMARY SCHOOLS,KIN,Y06,76,59,81,87,87,94,87,91,,,,,,,,,662
5613,FORRESTDALE PRIMARY SCHOOL,35 BROOME STREET,FORRESTDALE,WA,6112,35 BROOME STREET,FORRESTDALE,WA,6112,-32.15362108,115.9485362,08 9397 8100,SOUTH METROPOLITAN,Primary Schools,PRIMARY SCHOOLS,KIN,Y06,31,21,35,39,51,27,21,24,,,,,,,,,249
5174,FORRESTFIELD PRIMARY SCHOOL,45 SUSSEX ROAD,FORRESTFIELD,WA,6058,45 SUSSEX ROAD,FORRESTFIELD,WA,6058,-31.99141866,116.0088324,08 9483 2083,SOUTH METROPOLITAN,Primary Schools,PRIMARY SCHOOLS,KIN,Y06,19,22,25,20,18,18,23,16,,,,,,,,,161
1412,FOUNDATION CHRISTIAN COLLEGE,115 WALDRON BLVDE,GREENFIELDS,WA,6210,115 WALDRON BLVDE,GREENFIELDS,WA,6210,-32.52931617,115.7622888,08 9586 5444,SOUTH METROPOLITAN,NON-GOVT SCHOOLS,NON-GOVERNMENT,KIN,Y12,25,37,48,41,54,53,60,72,,76,70,41,48,45,34,,704
1470,FOUNTAIN COLLEGE,12 KARRI WAY,FERNDALE,WA,6148,12 KARRI WAY,FERNDALE,WA,6148,-32.03648539,115.9200109,08 9458 3555,SOUTH METROPOLITAN,NON-GOVT SCHOOLS,NON-GOVERNMENT,KIN,Y12,29,24,35,35,44,50,54,48,,53,48,53,44,39,22,,578
1398,FRANCIS JORDAN CATHOLIC SCHOOL,25 PETERBOROUGH DRIVE,CURRAMBINE,WA,6028,25 PETERBOROUGH DRIVE,CURRAMBINE,WA,6028,-31.73113849,115.7384265,08 9305 4990,NORTH METROPOLITAN,NON-GOVT SCHOOLS,NON-GOVERNMENT,KIN,Y06,44,34,38,42,39,54,53,49,,,,,,,,,353
5176,FRANKLAND RIVER PRIMARY SCHOOL,1 EVANS STREET,FRANKLAND RIVER,WA,6396,C/- POST OFFICE,FRANKLAND RIVER,WA,6396,-34.36312,117.078601,08 9855 0500,SOUTH WEST,Primary Schools,PRIMARY SCHOOLS,KIN,Y06,5,7,4,9,8,6,10,2,,,,,,,,,51
1373,FREDERICK IRWIN ANGLICAN SCHOOL,36-66 GORDON ROAD,MANDURAH,WA,6210,36-66 GORDON ROAD,MANDURAH,WA,6210,-32.50869435,115.7530802,08 9537 0000,SOUTH METROPOLITAN,NON-GOVT SCHOOLS,NON-GOVERNMENT,KIN,Y12,97,84,90,85,88,88,106,114,,169,157,155,140,148,117,,"1,638"
1351,FREMANTLE CHRISTIAN COLLEGE,110 ROCKINGHAM ROAD,HAMILTON HILL,WA,6163,110 ROCKINGHAM ROAD,HAMILTON HILL,WA,6163,-32.0843654,115.7751984,08 9430 6635,SOUTH METROPOLITAN,NON-GOVT SCHOOLS,NON-GOVERNMENT,KIN,Y12,14,25,19,22,26,30,32,24,,62,48,53,33,32,23,,443
4206,FREMANTLE COLLEGE,LEFROY ROAD,BEACONSFIELD,WA,6162,LEFROY ROAD,BEACONSFIELD,WA,6162,-32.06791,115.76798,08 9338 8900,SOUTH METROPOLITAN,Senior High Schools,SECONDARY SCHOOLS,Y07,Y12,,,,,,,,,,223,241,223,243,234,176,,"1,340"
6040,FREMANTLE LANGUAGE DEVELOPMENT CENTRE,24 WINNACOTT STREET,WILLAGEE,WA,6156,PO BOX 1031,WILLAGEE,WA,6156,-32.05149344,115.8043461,08 9312 4850,SOUTH METROPOLITAN,LANGUAGE DEVELOPMENT CENTRES,EDUCATION SUPPORT,KIN,Y03,21,48,69,41,35,,,,,,,,,,,,214
5420,FREMANTLE PRIMARY SCHOOL,1 BRENNAN STREET,FREMANTLE,WA,6160,1 BRENNAN STREET,FREMANTLE,WA,6160,-32.05883702,115.7535353,08 9432 1400,SOUTH METROPOLITAN,Primary Schools,PRIMARY SCHOOLS,KIN,Y06,29,26,27,35,32,40,36,29,,,,,,,,,254
5105,FRESHWATER BAY PRIMARY SCHOOL,CNR BAY VIEW TERRACE/PRINCESS ROADS,CLAREMONT,WA,6010,CNR BAY VIEW TERRACE/PRINCESS ROADS,CLAREMONT,WA,6010,-31.98588984,115.7823097,08 6458 7000,NORTH METROPOLITAN,Primary Schools,PRIMARY SCHOOLS,KIN,Y06,58,45,72,52,47,44,54,49,,,,,,,,,421
5180,GAIRDNER PRIMARY SCHOOL,45 GAIRDNER ROAD SOUTH,GAIRDNER,WA,6337,45 GAIRDNER ROAD SOUTH,GAIRDNER,WA,6337,-34.2108414,118.9385849,08 9836 0400,SOUTH WEST,Primary Schools,PRIMARY SCHOOLS,KIN,Y04,1,1,2,,,3,,,,,,,,,,,7
5181,GASCOYNE JUNCTION REMOTE COMMUNITY SCHOOL,36 GREGORY STREET,GASCOYNE JUNCTION,WA,6705,PMB 102,CARNARVON,WA,6701,-25.05320773,115.2083775,08 9943 1600,MIDWEST,Primary Schools,PRIMARY SCHOOLS,KIN,Y09,1,1,1,,3,2,1,,,,,2,,,,,11
6159,GEOGRAPHE EDUCATION SUPPORT CENTRE,LOT 153 CLYDEBANK AVENUE,BUSSELTON,WA,6280,LOT 153 CLYDEBANK AVENUE,BUSSELTON,WA,6280,-33.66661113,115.3288339,08 9751 7803,SOUTH WEST,Education Support Centres,EDUCATION SUPPORT,KIN,Y12,3,4,7,2,5,1,2,5,,4,3,4,6,,1,,47
5775,GEOGRAPHE PRIMARY SCHOOL,CLYDEBANK AVENUE,BUSSELTON,WA,6280,CLYDEBANK AVENUE,BUSSELTON,WA,6280,-33.66661113,115.3288339,08 9751 7800,SOUTH WEST,Primary Schools,PRIMARY SCHOOLS,KIN,Y06,42,44,44,41,53,52,49,53,,,,,,,,,378
1429,GEORGIANA MOLLOY ANGLICAN SCHOOL,2 HAWKER APPROACH,BUSSELTON,WA,6280,2 HAWKER APPROACH,BUSSELTON,WA,6280,-33.6606425,115.3815495,08 9752 5252,SOUTH WEST,NON-GOVT SCHOOLS,NON-GOVERNMENT,KIN,Y12,66,48,60,54,63,87,91,71,,122,114,107,118,81,68,,"1,150"
1292,GERALDTON CHRISTIAN COLLEGE,15 CEDAR CRESCENT,STRATHALBYN,WA,6530,15 CEDAR CRESCENT,STRATHALBYN,WA,6530,-28.75198509,114.6442673,08 9938 9100 ,MIDWEST,NON-GOVT SCHOOLS,NON-GOVERNMENT,KIN,Y12,24,26,17,32,34,27,33,28,,35,44,28,35,29,21,,413
1484,GERALDTON FLEXIBLE LEARNING CENTRE,15 BAYLY STREET,GERALDTON,WA,6530,15 BAYLY STREET,GERALDTON,WA,6530,-28.76770179,114.6188153,08 9965 2264,MIDWEST,NON-GOVT SCHOOLS,NON-GOVERNMENT,Y07,Y12,,,,,,,,,,6,9,16,25,22,7,,85
1403,GERALDTON GRAMMAR SCHOOL,134 GEORGE ROAD,GERALDTON,WA,6530,134 GEORGE ROAD,GERALDTON,WA,6530,-28.76195313,114.621025,08 9965 7800,MIDWEST,NON-GOVT SCHOOLS,NON-GOVERNMENT,KIN,Y12,36,19,22,29,28,31,41,47,,64,51,65,55,43,38,,569
5183,GERALDTON PRIMARY SCHOOL,75 FITZGERALD STREET,GERALDTON,WA,6530,PO BOX 7207,GERALDTON PO,WA,6531,-28.77863662,114.6080556,08 9968 1850,MIDWEST,Primary Schools,PRIMARY SCHOOLS,KIN,Y06,42,48,43,54,48,41,65,54,,,,,,,,,395
4163,GERALDTON SENIOR HIGH SCHOOL,CARSON TERRACE,GERALDTON,WA,6530,PMB 10100,GERALDTON PO,WA,6531,-28.78068474,114.6117092,08 9965 8400,MIDWEST,Senior High Schools,SECONDARY SCHOOLS,Y07,Y12,,,,,,,,,,166,151,188,191,162,67,,925
5540,GIBBS STREET PRIMARY SCHOOL,79-93 GIBBS STREET,EAST CANNINGTON,WA,6107,79-93 GIBBS STREET,EAST CANNINGTON,WA,6107,-32.00835874,115.9537521,08 9473 9550,SOUTH METROPOLITAN,Primary Schools,PRIMARY SCHOOLS,KIN,Y06,69,87,86,89,77,63,52,60,,,,,,,,,583
5726,GIDGEGANNUP PRIMARY SCHOOL,BUNNING ROAD,GIDGEGANNUP,WA,6083,PO BOX 119,GIDGEGANNUP,WA,6083,-31.79416905,116.1954072,08 9578 4000,NORTH METROPOLITAN,Primary Schools,PRIMARY SCHOOLS,KIN,Y06,19,22,27,29,27,28,16,25,,,,,,,,,193
4031,GILMORE COLLEGE,DARGIN PLACE,ORELIA,WA,6167,PO BOX 86,KWINANA,WA,6966,-32.238266,115.814803,08 6595 2700,SOUTH METROPOLITAN,Senior High Schools,SECONDARY SCHOOLS,Y07,Y12,,,,,,,,,,192,170,222,218,206,149,,"1,157"
4135,GINGIN DISTRICT HIGH SCHOOL,1 DAW STREET,GINGIN,WA,6503,1 DAW STREET,GINGIN,WA,6503,-31.34427642,115.9123687,08 9575 5300,NORTH METROPOLITAN,District High Schools,DISTRICT HIGH SCHOOLS,KIN,Y12,23,21,31,26,21,30,22,25,,20,25,10,14,4,3,,275
4110,GIRRAWHEEN SENIOR HIGH SCHOOL,39 CALVERT WAY,GIRRAWHEEN,WA,6064,39 CALVERT WAY,GIRRAWHEEN,WA,6064,-31.83648977,115.8418703,08 9247 0555,NORTH METROPOLITAN,Senior High Schools,SECONDARY SCHOOLS,Y07,Y12,,,,,,,,,,85,75,86,72,67,53,,438
6011,GLADYS NEWTON SCHOOL,93 BALGA AVENUE,BALGA,WA,6061,93 BALGA AVENUE,BALGA,WA,6061,-31.85488957,115.847358,08 9413 1900,NORTH METROPOLITAN,Education Support Schools,EDUCATION SUPPORT,KIN,Y12,6,5,8,11,9,10,8,13,,11,9,13,5,5,17,,130
8367,GLEN FORREST COMMUNITY KINDERGARTEN,47A MARNIE ROAD,GLEN FORREST,WA,6071,47A MARNIE ROAD,GLEN FORREST,WA,6071,-31.90683334,116.1023159,08 9298 9250,NORTH METROPOLITAN,Community Kindergartens,COMMUNITY KINDERGARTENS,KIN,KIN,27,,,,,,,,,,,,,,,,27
5186,GLEN FORREST PRIMARY SCHOOL,TILLBROOK STREET,GLEN FORREST,WA,6071,TILLBROOK STREET,GLEN FORREST,WA,6071,-31.91537475,116.100319,08 9298 6200,NORTH METROPOLITAN,Primary Schools,PRIMARY SCHOOLS,KIN,Y06,20,38,40,33,32,34,22,16,,,,,,,,,235
5769,GLEN HUON PRIMARY SCHOOL,MONASH BOULEVARD,EATON,WA,6232,MONASH BOULEVARD,EATON,WA,6232,-33.31523808,115.7261548,08 9796 7500,SOUTH WEST,Primary Schools,PRIMARY SCHOOLS,KIN,Y06,51,69,60,66,59,74,66,66,,,,,,,,,511
5655,GLENCOE PRIMARY SCHOOL,GLENCOE PARADE,HALLS HEAD,WA,6210,GLENCOE PARADE,HALLS HEAD,WA,6210,-32.54229018,115.7041404,08 9586 6800,SOUTH METROPOLITAN,Primary Schools,PRIMARY SCHOOLS,KIN,Y06,50,48,50,59,53,42,46,44,,,,,,,,,392
5534,GLENDALE PRIMARY SCHOOL,21 GLENDALE AVENUE,HAMERSLEY,WA,6022,21 GLENDALE AVENUE,HAMERSLEY,WA,6022,-31.84933302,115.8076235,08 9352 2700,NORTH METROPOLITAN,Primary Schools,PRIMARY SCHOOLS,KIN,Y06,40,53,40,37,40,35,33,35,,,,,,,,,313
5630,GLENGARRY PRIMARY SCHOOL,DOVERIDGE DRIVE,DUNCRAIG,WA,6023,25 DOVERIDGE DRIVE,DUNCRAIG,WA,6023,-31.82816781,115.7820552,08 9378 5678,NORTH METROPOLITAN,Primary Schools,PRIMARY SCHOOLS,KIN,Y06,33,55,43,56,53,52,51,56,,,,,,,,,399
4078,GNOWANGERUP DISTRICT HIGH SCHOOL,YOUGENUP ROAD,GNOWANGERUP,WA,6335,YOUGENUP ROAD,GNOWANGERUP,WA,6335,-33.938232,118.00801,08 9827 3300,SOUTH WEST,District High Schools,DISTRICT HIGH SCHOOLS,KIN,Y10,15,16,13,18,15,8,14,12,,7,15,4,4,,,,141
5838,GOLDEN BAY PRIMARY SCHOOL,9 THUNDELARRA DRIVE,GOLDEN BAY,WA,6174,PO BOX 690,MANDURAH,WA,6210,-32.42313769,115.7596842,08 9583 8800,SOUTH METROPOLITAN,Primary Schools,PRIMARY SCHOOLS,KIN,Y06,59,71,64,68,57,69,57,64,,,,,,,,,509
1390,GOLDEN HILL STEINER SCHOOL,222 SCOTSDALE ROAD,DENMARK,WA,6333,222 SCOTSDALE ROAD,DENMARK,WA,6333,-34.94203668,117.3591392,08 9848 1811,SOUTH WEST,NON-GOVT SCHOOLS,NON-GOVERNMENT,KIN,Y07,8,6,14,7,13,19,17,6,,13,,,,,,,103
1439,GOLDFIELDS BAPTIST COLLEGE,4 MAGUIRE STREET,KALGOORLIE,WA,6430,4 MAGUIRE STREET,KALGOORLIE,WA,6430,-30.77620533,121.4630845,08 9022 7535,GOLDFIELDS,NON-GOVT SCHOOLS,NON-GOVERNMENT,KIN,Y11,16,15,19,23,24,15,18,26,,30,37,37,18,15,,,293
1245,GOOD SHEPHERD CATHOLIC PRIMARY SCHOOL,15 ARBUTHNOT STREET,KELMSCOTT,WA,6111,15 ARBUTHNOT STREET,KELMSCOTT,WA,6111,-32.12560377,116.0262673,08 9496 9200,SOUTH METROPOLITAN,NON-GOVT SCHOOLS,NON-GOVERNMENT,KIN,Y06,30,29,17,29,28,30,23,29,,,,,,,,,215
1300,GOOD SHEPHERD CATHOLIC SCHOOL,215 MORLEY DRIVE,LOCKRIDGE,WA,6054,215 MORLEY DRIVE,LOCKRIDGE,WA,6054,-31.88645235,115.9432801,08 6278 9500,NORTH METROPOLITAN,NON-GOVT SCHOOLS,NON-GOVERNMENT,KIN,Y06,60,57,59,56,62,62,64,62,,,,,,,,,482
5650,GOOLLELAL PRIMARY SCHOOL,30 CADOGAN STREET,KINGSLEY,WA,6026,30 CADOGAN STREET,KINGSLEY,WA,6026,-31.81486804,115.8013853,08 6207 2100,NORTH METROPOLITAN,Primary Schools,PRIMARY SCHOOLS,KIN,Y06,30,43,33,31,36,26,33,32,,,,,,,,,264
5713,GOOMALLING PRIMARY SCHOOL,65 HODDY STREET,GOOMALLING,WA,6460,PO BOX 146,GOOMALLING,WA,6460,-31.30541151,116.8289089,08 9623 7700,WHEATBELT,Primary Schools,PRIMARY SCHOOLS,KIN,Y06,1,5,5,5,4,8,8,11,,,,,,,,,47
5551,GOOSEBERRY HILL PRIMARY SCHOOL,24 LEDGER ROAD,GOOSEBERRY HILL,WA,6076,24 LEDGER ROAD,GOOSEBERRY HILL,WA,6076,-31.95646856,116.05602,08 9257 4600,SOUTH METROPOLITAN,Primary Schools,PRIMARY SCHOOLS,KIN,Y06,37,60,52,58,50,77,55,56,,,,,,,,,445
5192,GOSNELLS PRIMARY SCHOOL,173 HICKS STREET,GOSNELLS,WA,6110,173 HICKS STREET,GOSNELLS,WA,6110,-32.07774624,116.0035224,08 9234 6350,SOUTH METROPOLITAN,Primary Schools,PRIMARY SCHOOLS,KIN,Y06,42,59,51,64,53,55,53,53,,,,,,,,,430
4020,GOVERNOR STIRLING SENIOR HIGH SCHOOL,25 THIRD AVENUE,WOODBRIDGE,WA,6056,25 THIRD AVENUE,WOODBRIDGE,WA,6056,-31.88893826,115.9888056,08 6274 0300,NORTH METROPOLITAN,Senior High Schools,SECONDARY SCHOOLS,Y07,Y12,,,,,,,,,,135,148,162,159,146,98,,848
1371,GRACE CHRISTIAN SCHOOL,22 VITTORIA ROAD,BUNBURY,WA,6230,22 VITTORIA ROAD,BUNBURY,WA,6230,-33.33832794,115.6810759,08 9726 4200,SOUTH WEST,NON-GOVT SCHOOLS,NON-GOVERNMENT,KIN,Y12,47,37,37,40,43,49,46,51,,42,53,59,42,25,21,,592
5861,GRANDIS PRIMARY SCHOOL,220 GRANDIS BOULEVARD,BANKSIA GROVE,WA,6031,220 GRANDIS BOULEVARD,BANKSIA GROVE,WA,6031,-31.693914,115.807747,08 9233 6500,NORTH METROPOLITAN,Primary Schools,PRIMARY SCHOOLS,KIN,Y06,100,101,100,99,90,60,65,42,,,,,,,,,657
1431,GREAT SOUTHERN GRAMMAR SCHOOL,244 NANARUP ROAD,LOWER KALGAN,WA,6330,244 NANARUP ROAD,LOWER KALGAN,WA,6330,-34.94755539,117.9707332,08 9844 0300,SOUTH WEST,NON-GOVT SCHOOLS,NON-GOVERNMENT,KIN,Y12,16,19,14,17,24,17,27,31,,68,69,83,55,99,78,,617
5195,GREENBUSHES PRIMARY SCHOOL,7 BLACKWOOD ROAD,GREENBUSHES,WA,6254,7 BLACKWOOD ROAD,GREENBUSHES,WA,6254,-33.85097107,116.0594122,08 9782 5950,SOUTH WEST,Primary Schools,PRIMARY SCHOOLS,KIN,Y06,5,4,6,13,4,5,7,2,,,,,,,,,46
5708,GREENFIELDS PRIMARY SCHOOL,9 ZAMBESI DRIVE,GREENFIELDS,WA,6210,9 ZAMBESI DRIVE,GREENFIELDS,WA,6210,-32.53397367,115.7509389,08 9586 0600,SOUTH METROPOLITAN,Primary Schools,PRIMARY SCHOOLS,KIN,Y06,43,52,56,44,42,59,55,53,,,,,,,,,404
5196,GREENMOUNT PRIMARY SCHOOL,50-68 INNAMINCKA ROAD,GREENMOUNT,WA,6056,50-68 INNAMINCKA ROAD,GREENMOUNT,WA,6056,-31.89659298,116.0474336,08 9257 0600,NORTH METROPOLITAN,Primary Schools,PRIMARY SCHOOLS,KIN,Y06,40,58,51,58,45,54,50,38,,,,,,,,,394
4122,GREENWOOD COLLEGE,79 COOLIBAH DRIVE,GREENWOOD,WA,6024,79 COOLIBAH DRIVE,GREENWOOD,WA,6024,-31.82628484,115.7914439,08 9235 4300,NORTH METROPOLITAN,Senior High Schools,SECONDARY SCHOOLS,Y07,Y12,,,,,,,,,,155,167,169,185,156,148,,980
5818,GREENWOOD PRIMARY SCHOOL,12 MERIVALE WAY,GREENWOOD,WA,6024,12 MERIVALE WAY,GREENWOOD,WA,6024,-31.82890115,115.8090201,08 9352 2750,NORTH METROPOLITAN,Primary Schools,PRIMARY SCHOOLS,KIN,Y06,39,34,45,51,46,35,53,49,,,,,,,,,352
5623,GROVELANDS PRIMARY SCHOOL,14 GROVELANDS DRIVE,CAMILLO,WA,6111,14 GROVELANDS DRIVE,CAMILLO,WA,6111,-32.12023725,115.9990409,08 9496 9000,SOUTH METROPOLITAN,Primary Schools,PRIMARY SCHOOLS,KIN,Y06,25,43,41,53,40,48,53,43,,,,,,,,,346
1074,GUILDFORD GRAMMAR SCHOOL,11 TERRACE ROAD,GUILDFORD,WA,6055,11 TERRACE ROAD,GUILDFORD,WA,6055,-31.894036,115.981892,08 9377 9222,NORTH METROPOLITAN,NON-GOVT SCHOOLS,NON-GOVERNMENT,KIN,Y12,91,43,40,56,50,68,55,65,,142,140,111,145,152,139,,"1,297"
5197,GUILDFORD PRIMARY SCHOOL,125 HELENA STREET,GUILDFORD,WA,6055,125 HELENA STREET,GUILDFORD,WA,6055,-31.90233645,115.9678061,08 6216 1200,NORTH METROPOLITAN,Primary Schools,PRIMARY SCHOOLS,KIN,Y06,38,33,45,35,38,36,26,24,,,,,,,,,275
6075,GWYNNE PARK EDUCATION SUPPORT CENTRE,TIJUANA ROAD,ARMADALE,WA,6112,TIJUANA ROAD,ARMADALE,WA,6112,-32.1618132,115.999196,08 9391 4050,SOUTH METROPOLITAN,Education Support Centres,EDUCATION SUPPORT,KIN,Y06,5,6,19,7,10,11,10,12,,,,,,,,,80
5615,GWYNNE PARK PRIMARY SCHOOL,TIJUANA ROAD,ARMADALE,WA,6112,TIJUANA ROAD,ARMADALE,WA,6112,-32.1618132,115.999196,08 9391 4000,SOUTH METROPOLITAN,Primary Schools,PRIMARY SCHOOLS,KIN,Y06,60,65,62,61,62,56,60,61,,,,,,,,,487
1193,HALE SCHOOL,160 HALE ROAD,WEMBLEY DOWNS,WA,6019,160 HALE ROAD,WEMBLEY DOWNS,WA,6019,-31.91232249,115.7837828,08 9347 9777,NORTH METROPOLITAN,NON-GOVT SCHOOLS,NON-GOVERNMENT,PPR,Y12,,42,42,44,39,78,75,78,,195,195,200,206,218,210,,"1,622"
5678,HALIDON PRIMARY SCHOOL,38 HALIDON STREET,KINGSLEY,WA,6026,38 HALIDON STREET,KINGSLEY,WA,6026,-31.80783809,115.801427,08 6207 2500,NORTH METROPOLITAN,Primary Schools,PRIMARY SCHOOLS,KIN,Y06,24,22,21,32,28,27,20,26,,,,,,,,,200
4145,HALLS CREEK DISTRICT HIGH SCHOOL,THOMAS STREET,HALLS CREEK,WA,6770,PO BOX 117,HALLS CREEK,WA,6770,-18.22567554,127.669356,08 9171 5555,KIMBERLEY,District High Schools,DISTRICT HIGH SCHOOLS,KIN,Y12,14,23,27,32,20,26,22,28,,32,22,29,24,22,27,,348
4166,HALLS HEAD COLLEGE,1 CASUARINA DRIVE,HALLS HEAD,WA,6210,1 CASUARINA DRIVE,HALLS HEAD,WA,6210,-32.55444963,115.6942404,08 9581 0600,SOUTH METROPOLITAN,Senior High Schools,SECONDARY SCHOOLS,Y07,Y12,,,,,,,,,,231,234,253,247,223,209,,"1,397"
6155,HALLS HEAD COLLEGE EDUCATION SUPPORT CENTRE,CASUARINA DRIVE,HALLS HEAD,WA,6210,CASUARINA DRIVE,HALLS HEAD,WA,6210,-32.55444963,115.6942404,08 9581 0613,SOUTH METROPOLITAN,Education Support Centres,EDUCATION SUPPORT,Y07,Y10,,,,,,,,,,16,17,16,12,,,,61
5738,HALLS HEAD PRIMARY SCHOOL,21 OLEANDER PLACE,HALLS HEAD,WA,6210,21 OLEANDER PLACE,HALLS HEAD,WA,6210,-32.55019839,115.6949747,08 9584 6900,SOUTH METROPOLITAN,Primary Schools,PRIMARY SCHOOLS,KIN,Y06,40,43,40,52,44,55,57,57,,,,,,,,,388
1475,HAMMOND PARK CATHOLIC PRIMARY SCHOOL,25 WOODROW AVE,HAMMOND PARK,WA,6164,25 WOODROW AVE,HAMMOND PARK,WA,6164,-32.17296139,115.8487346,08 6595 6100,SOUTH METROPOLITAN,NON-GOVT SCHOOLS,NON-GOVERNMENT,KIN,Y06,69,59,58,59,59,56,59,52,,,,,,,,,471
5823,HAMMOND PARK PRIMARY SCHOOL,10 EUCALYPTUS DRIVE,HAMMOND PARK,WA,6164,10 EUCALYPTUS DRIVE,HAMMOND PARK,WA,6164,-32.16737931,115.8435325,08 9494 3200,SOUTH METROPOLITAN,Primary Schools,PRIMARY SCHOOLS,KIN,Y06,80,149,115,113,116,124,129,104,,,,,,,,,930
4210,HAMMOND PARK SECONDARY COLLEGE,55 IRVINE PARADE,HAMMOND PARK,WA,6164,55 IRVINE PARADE,HAMMOND PARK,WA,6164,-32.172219,115.850504,08 9395 3800,SOUTH METROPOLITAN,Senior High Schools,SECONDARY SCHOOLS,Y07,Y10,,,,,,,,,,206,178,176,171,,,,731
5202,HAMPTON PARK PRIMARY SCHOOL,1 PAINE ROAD,MORLEY,WA,6062,1 PAINE ROAD,MORLEY,WA,6062,-31.886679,115.916552,08 9413 4200,NORTH METROPOLITAN,Primary Schools,PRIMARY SCHOOLS,KIN,Y06,45,37,42,49,45,49,54,41,,,,,,,,,362
4022,HAMPTON SENIOR HIGH SCHOOL,MORLEY DRIVE EAST,MORLEY,WA,6062,MORLEY DRIVE EAST,MORLEY,WA,6943,-31.89085713,115.92693,08 6235 7100,NORTH METROPOLITAN,Senior High Schools,SECONDARY SCHOOLS,Y07,Y12,,,,,,,,,,178,151,139,179,138,124,,909
5727,HANNANS PRIMARY SCHOOL,2A NANKIVILLE ROAD,KALGOORLIE,WA,6430,2A NANKIVILLE ROAD,KALGOORLIE,WA,6430,-30.72499605,121.4518583,08 9068 5300,GOLDFIELDS,Primary Schools,PRIMARY SCHOOLS,KIN,Y06,42,44,49,51,38,49,44,33,,,,,,,,,350
5785,HARMONY PRIMARY SCHOOL,60 AURORA DRIVE,ATWELL,WA,6164,60 AURORA DRIVE,ATWELL,WA,6164,-32.15122168,115.8645645,08 6174 6600,SOUTH METROPOLITAN,Primary Schools,PRIMARY SCHOOLS,KIN,Y06,59,56,62,61,73,66,64,69,,,,,,,,,510
5842,HARRISDALE PRIMARY SCHOOL,7 FAIRHAVEN AVENUE,HARRISDALE,WA,6112,7 FAIRHAVEN AVENUE,HARRISDALE,WA,6112,-32.12523245,115.9379534,08 9234 9700,SOUTH METROPOLITAN,Primary Schools,PRIMARY SCHOOLS,KIN,Y06,78,95,117,142,139,149,155,186,,,,,,,,,"1,061"
